"Category","address1","city","county","distanceTo","id","isAirport","isHotel","lat","lng","name","postcode","pubIsClosed","pubIsTemporaryClosed","pubNumber","summary","telephone","url"
,"Merry Hill Centre","Brierley Hill","West Midlands",0,"6a8f39bb-af95-4d6e-8f6f-1e96602abbd9",false,false,52.4794273376465,-2.11140704154968,"Abraham Darby","DY5 1SX",false,false,"5243","","01384 472850","/pubs/all-pubs/england/west-midlands/abraham-darby-brierley-hill"
,"Lichfield Street","Walsall","West Midlands",0,"03317338-fae9-489a-afe7-741118c4b7a7",false,false,52.5851898193359,-1.97981202602386,"St. Matthew’s Hall","WS1 1SX",false,false,"6694","","01922 700820","/pubs/all-pubs/england/west-midlands/st-matthews-hall-walsall"
,"Walsall Road","Birmingham","West Midlands",0,"a4ee0b86-81fb-4aa5-9496-3f5552ef5934",false,false,52.5169219970703,-1.90260195732117,"The Arthur Robertson","B42 1AA",false,false,"5834","","0121 332 5910","/pubs/all-pubs/england/west-midlands/the-arthur-robertson-birmingham"
,"Birmingham NEC","Birmingham","West Midlands",0,"30c1e03c-bfa5-4fbe-a198-8762770622c1",false,false,52.4545974731445,-1.71790599822998,"The Atrium","B40 1NT",false,false,"5397","","0121 782 7757","/pubs/all-pubs/england/west-midlands/the-atrium-birmingham"
,"19 Anchor Road","Aldridge","West Midlands",0,"d9f5edbe-6389-4ed8-9fea-9fece420ec81",false,false,52.6034278869629,-1.91969799995422,"The Avion","WS9 8PT",false,false,"6882","","01922 749810","/pubs/all-pubs/england/west-midlands/the-avion-aldridge"
,"3–4 Walsall Street","Wednesbury","West Midlands",0,"e048324e-d0d9-4e5c-8646-00013a6bc24c",false,false,52.5532493591309,-2.01899695396423,"The Bellwether","WS10 9BZ",false,false,"1406","","0121 502 6404","/pubs/all-pubs/england/west-midlands/the-bellwether-wednesbury"
,"St Michael’s Street","West Bromwich","West Midlands",0,"3c321b36-c7be-4c1e-bebf-2164871c8fd2",false,false,52.5184745788574,-1.99523603916168,"The Billiard Hall","B70 7AB",false,false,"592","","0121 580 2892","/pubs/all-pubs/england/west-midlands/the-billiard-hall-west-bromwich"
,"63 Boldmere Road","Sutton Coldfield","West Midlands",0,"9cdd034a-bbcb-4992-bce9-961172c9c177",false,false,52.548526763916,-1.84108805656433,"The Bishop Vesey","B73 5XA",false,false,"297","","0121 355 5077","/pubs/all-pubs/england/west-midlands/the-bishop-vesey-sutton-coldfield"
,"Bristol Road South","Birmingham","West Midlands",0,"e8248a77-da2f-481e-85aa-03d4b01867ef",false,false,52.411922454834,-1.97342300415039,"The Black Horse","B31 2QT",false,false,"6234","","0121 477 1800","/pubs/all-pubs/england/west-midlands/the-black-horse-birmingham"
,"156A High Street","Bloxwich","West Midlands",0,"ca1d7221-e9dd-4726-862d-74570409a76d",false,false,52.6147804260254,-2.0041708946228,"The Bloxwich Showman","WS3 3JT",false,false,"6875","","01922 495366","/pubs/all-pubs/england/west-midlands/the-bloxwich-showman-bloxwich"
,"2 Birmingham Road","Sutton Coldfield","West Midlands",0,"bd884721-61c7-43c5-a7dc-3379df53e0ef",false,false,52.5602531433105,-1.82551097869873,"The Bottle of Sack","B72 1QG",false,false,"1251","","0121 362 8870","/pubs/all-pubs/england/west-midlands/the-bottle-of-sack-sutton-coldfield"
,"25 Bennetts Hill","Birmingham","West Midlands",0,"0c9798ec-a3ba-4b65-a97a-a34ebf43827b",false,true,52.4799194335938,-1.90019297599792,"The Briar Rose","B2 5RE",false,false,,"","0121 634 8100","/hotels/england/west-midlands/the-briar-rose"
,"25 Bennetts Hill","Birmingham","West Midlands",0,"caa97e55-16e6-4e45-ad01-6750c93dd5b2",false,false,52.4799194335938,-1.90019297599792,"The Briar Rose","B2 5RE",false,false,"791","","0121 634 8100","/pubs/all-pubs/england/west-midlands/the-briar-rose-birmingham"
,"124 Halesowen Street","Rowley Regis","West Midlands",0,"729cab72-6da7-4c35-96ee-0252622ef279",false,false,52.4737319946289,-2.0417959690094,"The Britannia","B65 0ES",false,false,"1656","","0121 559 0010","/pubs/all-pubs/england/west-midlands/the-britannia-rowley-regis"
,"49 Barnabas Road","Birmingham","West Midlands",0,"a5a99cd0-cf2c-43d3-9c01-ebea2d8a9e78",false,false,52.5242500305176,-1.83996999263763,"The Charlie Hall","B23 6SH",false,false,"1355","","0121 384 2716","/pubs/all-pubs/england/west-midlands/the-charlie-hall-birmingham"
,"96 High Street","Stourbridge","West Midlands",0,"1dc67171-949d-4a81-b768-c1459e483baf",false,false,52.4549751281738,-2.14375805854797,"The Chequers Inn","DY8 1EQ",false,false,"6422","","01384 398670","/pubs/all-pubs/england/west-midlands/the-chequers-inn-stourbridge"
,"1 Earlsdon Street","Coventry","West Midlands",0,"e09a0fc1-8934-459f-9529-c08c740b0017",false,false,52.3996505737305,-1.53071701526642,"The City Arms","CV5 6EP",false,false,"1823","","024 7671 8170","/pubs/all-pubs/england/west-midlands/the-city-arms-coventry"
,"Bull Ring","Sedgley","West Midlands",0,"7cf745e2-47f0-4275-8549-781bc172a809",false,false,52.5414009094238,-2.12246108055115,"The Clifton","DY3 1RX",false,false,"663","","01902 677448","/pubs/all-pubs/england/west-midlands/the-clifton-sedgley"
,"Church Street","Oldbury","West Midlands",0,"1b532dfe-13e0-4dc7-a1cd-0e269d735b75",false,false,52.504695892334,-2.01585102081299,"The Court of Requests","B69 3AF",false,false,"6596","","0121 543 6970","/pubs/all-pubs/england/west-midlands/the-court-of-requests-oldbury"
,"The Cross Inn","Kingswinford","West Midlands",0,"0f21692a-2d02-4520-9f2c-f525e69c2eb7",false,false,52.4974632263184,-2.17708539962769,"The Cross Inn","DY6 8AA",false,false,"7226","","01384 297014","/pubs/all-pubs/england/west-midlands/the-cross-inn-kingswinford"
,"Hurst Street","Birmingham","West Midlands",0,"f71ecde9-01e6-432d-85bd-fe8e0fe874ad",false,false,52.4742698669434,-1.89664602279663,"The Dragon Inn","B5 4TD",false,false,"5609","","0121 622 7850","/pubs/all-pubs/england/west-midlands/the-dragon-inn-birmingham"
,"18 High Street","Coventry","West Midlands",0,"c70a85ba-943a-4203-ab95-7d7c9f7e3c9c",false,false,52.4071311950684,-1.50856697559357,"The Earl of Mercia","CV1 5RE",false,false,"2192","","024 7643 3990","/pubs/all-pubs/england/west-midlands/the-earl-of-mercia-coventry"
,"12a St Mary’s Row","Moseley","West Midlands",0,"b8f25d5a-572c-4ba5-92a3-c20446633bd3",false,false,52.4463157653809,-1.88753199577332,"The Elizabeth of York","B13 8JG",false,false,"1320","","0121 442 5250","/pubs/all-pubs/england/west-midlands/the-elizabeth-of-york-moseley"
,"236–239 Broad Street","Birmingham","West Midlands",0,"a7f7f912-c5b3-433e-9408-7de3292291ff",false,false,52.4765663146973,-1.91231203079224,"The Figure of Eight","B1 2HG",false,false,"295","","0121 633 0917","/pubs/all-pubs/england/west-midlands/the-figure-of-eight-birmingham"
,"2–10  Trinity Street","Coventry","West Midlands",0,"74504c12-d98d-45ae-b598-df07a6ec1c9b",false,false,52.4090690612793,-1.50948596000671,"The Flying Standard","CV1 1FL",false,false,"163","","024 7655 5723","/pubs/all-pubs/england/west-midlands/the-flying-standard-coventry"
,"58–60 High Street","Dudley","West Midlands",0,"b914a4cc-5ef8-411d-b131-f4aefb89c4ba",false,false,52.5094261169434,-2.08445501327515,"The Full Moon","DY1 1PY",false,false,"189","","01384 212294","/pubs/all-pubs/england/west-midlands/the-full-moon-dudley"
,"991 Alum Rock Road","Birmingham","West Midlands",0,"c0c3986f-99ea-4714-818c-a86853904308",false,false,52.4927177429199,-1.81948697566986,"The Hornet","B8 2LY",false,false,"1670","","0121 789 5920","/pubs/all-pubs/england/west-midlands/the-hornet-birmingham"
,"The Dale","Willenhall","West Midlands",0,"a9a2d988-e7e6-425e-b8d4-8eb5cf8ee8f9",false,false,52.5829582214355,-2.05502700805664,"The Malthouse","WV13 2BG",false,false,"798","","01902 635273","/pubs/all-pubs/england/west-midlands/the-malthouse-willenhall"
,"294 Lichfield Road","Mere Green","West Midlands",0,"83b1e485-a61c-4036-ab2d-83c8bc4a8827",false,false,52.586540222168,-1.82841897010803,"The Mare Pool","B74 2UG",false,false,"6387","","0121 323 1070","/pubs/all-pubs/england/west-midlands/the-mare-pool-mere-green"
,"164–166 High Street","Cradley Heath","West Midlands",0,"3e6c78be-2691-4626-8081-25954eb10bd4",false,false,52.4721031188965,-2.0824658870697,"The Moon Under Water","B64 5HJ",false,false,"495","","01384 565419","/pubs/all-pubs/england/west-midlands/the-moon-under-water-cradley-heath"
,"53–55 Lichfield Street","Wolverhampton","West Midlands",0,"c36f9996-7627-4526-85dc-7abbb28ddb65",false,false,52.5867462158203,-2.12417101860046,"The Moon Under Water","WV1 1EQ",false,false,"184","","01902 422447","/pubs/all-pubs/england/west-midlands/the-moon-under-water-wolverhampton"
,"25–27 Alcester Road South","Birmingham","West Midlands",0,"e464a757-73a8-457a-a35d-c568cd165139",false,false,52.4319343566895,-1.89276695251465,"The Pear Tree","B14 7JQ",false,false,"2053","","0121 441 6710","/pubs/all-pubs/england/west-midlands/the-pear-tree-birmingham"
,"Unit 1 Parkgate Development, Stratford Road","Solihull","West Midlands",0,"361d2f96-25dd-45f0-991d-363526975410",false,false,52.4128646850586,-1.82775902748108,"The Pump House","B90 3AQ",false,false,"7178","","0121 701 5460","/pubs/all-pubs/england/west-midlands/the-pump-house-solihull"
,"41–43 The High Street","Wednesfield","West Midlands",0,"ae89c31a-ad78-4648-a23f-e0bbbdf2b093",false,false,52.6002922058105,-2.08189105987549,"The Royal Tiger","WV11 1ST",false,false,"626","","01902 307816","/pubs/all-pubs/england/west-midlands/the-royal-tiger-wednesfield"
,"45–47 High Street","Bilston","West Midlands",0,"1bb08d1f-1b11-425a-9960-9f8766815072",false,false,52.5640487670898,-2.0803050994873,"The Sir Henry Newbolt","WV14 0EP",false,false,"1470","","01902 404636","/pubs/all-pubs/england/west-midlands/the-sir-henry-newbolt-bilston"
,"Regency Wharf","Birmingham","West Midlands",0,"6f9be7bc-6f83-44c6-a2d4-996ca787a944",false,false,52.4781227111816,-1.91008198261261,"The Soloman Cutler","B1 2DS",false,false,"4124","","0121 631 8930","/pubs/all-pubs/england/west-midlands/the-soloman-cutler-birmingham"
,"Unit 2M, The Skydome, Croft Road","Coventry","West Midlands",0,"44c82383-4822-4e7e-b455-dce6300ddf13",false,false,52.4072036743164,-1.51780200004578,"The Spon Gate","CV1 3AZ",false,false,"6400","","024 7662 7300","/pubs/all-pubs/england/west-midlands/the-spon-gate-coventry"
,"1146a  Warwick Road","Birmingham","West Midlands",0,"eb1bea3f-2a5b-41e6-a63f-1ca4b240cb1a",false,false,52.4467315673828,-1.81966495513916,"The Spread Eagle","B27 6BL",false,false,"398","","0121 708 0194","/pubs/all-pubs/england/west-midlands/the-spread-eagle-birmingham"
,"115 Corporation Street","Birmingham","West Midlands",0,"09d7a628-c211-4d56-a09a-50c0fd6fd41c",false,false,52.4818725585938,-1.89495301246643,"The Square Peg","B4 6PH",false,false,"82","","0121 236 6530","/pubs/all-pubs/england/west-midlands/the-square-peg-birmingham"
,"6–7 The Waterfront","Brierley Hill","West Midlands",0,"51d76fbd-2e18-47d3-81de-06692f0cec3c",false,false,52.4856872558594,-2.11440706253052,"The Waterfront Inn","DY5 1XE",false,false,"1227","","01384 262096","/pubs/all-pubs/england/west-midlands/the-waterfront-inn-brierley-hill"
,"32–34 Station Road","Solihull","West Midlands",0,"f338008a-8e59-44a4-817c-27dc42ee9697",false,false,52.4144554138184,-1.78106296062469,"The White Swan","B91 3SB",false,false,"5178","","0121 711 5180","/pubs/all-pubs/england/west-midlands/the-white-swan-solihull"
,"1–5 Queensway","Halesowen","West Midlands",0,"76cd6ddd-a8b8-4427-a95c-3a5e61879f76",false,false,52.4496994018555,-2.05081796646118,"The William Shenstone","B63 4AB",false,false,"494","","0121 585 6246","/pubs/all-pubs/england/west-midlands/the-william-shenstone-halesowen"
,"140 Church Road","Birmingham","West Midlands",0,"1751d16d-6950-4b39-bf88-6e145883f954",false,false,52.4674377441406,-1.80855095386505,"The William Tyler","B25 8UT",false,false,"6299","","0121 789 5860","/pubs/all-pubs/england/west-midlands/the-william-tyler-birmingham"
,"After Security, Terminal 1, Birmingham International Airport","Birmingham","West Midlands",0,"58fa13b3-7871-4aa0-86df-9a783d9fbf72",true,false,52.4533424377441,-1.73261797428131,"Airport Wetherspoons","B26 3QJ",false,false,"6137","","0121 782 8823","/pubs/all-pubs/england/west-midlands/wetherspoons-birmingham-airport"
,"Birmingham NEC","Birmingham","West Midlands",0,"165fcff1-0b99-4cf3-83e1-355d5be39bc6",false,false,52.4538917541504,-1.71706998348236,"NEC Wetherspoons","B40 1NT",false,false,"5505","","0121 767 9140","/pubs/all-pubs/england/west-midlands/wetherspoons-birmingham-nec-exhibition-centre"
,"282–284 Mare Street","Hackney","London",0,"59d628de-ed21-44ee-8e03-3550a08a9cd2",false,false,51.5454559326172,-0.0550870001316071,"Baxter’s Court","E8 1HE",false,false,"185","","020 8525 9010","/pubs/all-pubs/england/london/baxters-court-hackney"
,"146–148 The Grove","Stratford","London",0,"2a7a880a-f3e2-4b11-b539-77917dc2ef84",false,false,51.5437507629395,0.00399800017476082,"Goldengrove","E15 1NS",false,false,"91","","020 8519 0750","/pubs/all-pubs/england/london/goldengrove-stratford"
,"87–91 Mansell Street","Tower Hamlets","London",0,"185103d6-028c-4203-87bb-e64d11af781b",false,false,51.5114936828613,-0.0728579983115196,"Goodman’s Field","E1 8AN",false,false,"2173","","020 7680 2850","/pubs/all-pubs/england/london/goodmans-field-tower-hamlets"
,"Street-level Concourse","City of London","London",0,"6225c439-dd5b-4e3b-8b4f-6aaabfd82853",false,false,51.5176429748535,-0.0809630006551743,"Hamilton Hall","EC2M 7PY",false,false,"42","","020 7247 3579","/pubs/all-pubs/england/london/hamilton-hall-city-of-london"
,"553 Kingsbury Road","Kingsbury","London",0,"d35c8317-3894-4519-8564-2bfb5ca60196",false,false,51.5846748352051,-0.279922008514404,"J.J. Moon’s","NW9 9EL",false,false,"27","","020 8204 9675","/pubs/all-pubs/england/london/jj-moons-kingsbury"
,"12 Victoria Road","Ruislip Manor","London",0,"97154c9a-c99c-446b-a1c7-100755ec0270",false,false,51.5733261108398,-0.41329300403595,"J.J. Moon’s","HA4 0AA",false,false,"20","","01895 622373","/pubs/all-pubs/england/london/jj-moons-ruislip-manor"
,"56a High Street","Tooting","London",0,"1a2d80da-0529-405c-a19c-ac81b5417495",false,false,51.427848815918,-0.168426007032394,"J.J. Moon’s","SW17 0RN",false,false,"39","","020 8672 4726","/pubs/all-pubs/england/london/jj-moons-tooting"
,"397 High Road","Wembley","London",0,"e0dd606f-622d-45bf-ae21-5f2c1d899c9c",false,false,51.5535888671875,-0.292811006307602,"J.J. Moon’s","HA9 6AA",false,false,"5","","020 8903 4923","/pubs/all-pubs/england/london/jj-moons-wembley"
,"Unit 3, First Floor","Fulham","London",0,"bbd36b20-ae7d-48bd-93d1-53e76ec78100",false,false,51.4804153442383,-0.194436997175217,"Oyster Rooms","SW6 1AA",false,false,"4063","","020 7471 0310","/pubs/all-pubs/england/london/oyster-rooms-fulham"
,"283–288 High Holborn","Holborn","London",0,"c393af3a-5921-439f-8c35-2996f4e2c381",false,false,51.5179672241211,-0.115480996668339,"Penderel’s Oak","WC1V 7HP",false,false,"506","","020 7242 5669","/pubs/all-pubs/england/london/penderels-oak-holborn"
,"Africa House, 64–68 Kingsway","Holborn","London",0,"99d3eca8-c211-4568-b528-cf931e316df9",false,false,51.5168151855469,-0.119686000049114,"Shakespeare's Head","WC2B 6BG",false,false,"239","","020 7404 8846","/pubs/all-pubs/england/london/shakespeares-head-holborn"
,"Unit 5, Spouter’s Corner","Wood Green","London",0,"e2166cc8-5aa9-416c-b958-33e39f175aad",false,false,51.5969734191895,-0.108708001673222,"Spouter’s Corner","N22 6EJ",false,false,"390","","020 8881 3891","/pubs/all-pubs/england/london/spouters-corner-wood-green"
,"316–322 Green Lanes","Palmers Green","London",0,"1e3a5de8-f09f-46c2-b7a9-30ece478951f",false,false,51.6193428039551,-0.106969997286797,"The Alfred Herring","N13 5TT",false,false,"2466","","020 3232 1083","/pubs/all-pubs/england/london/the-alfred-herring-palmers-green"
,"3–5 Islington High Street","Islington","London",0,"c4626b8b-b8e9-48d6-81eb-d35cb69f9859",false,false,51.5321846008301,-0.106421999633312,"The Angel","N1 9LQ",false,false,"783","","020 7837 2218","/pubs/all-pubs/england/london/the-angel-islington"
,"1–13 Falcon Road","Battersea","London",0,"fabc3245-4853-468a-8a85-1d2a7cb0d7d6",false,false,51.4698791503906,-0.171416997909546,"The Asparagus","SW11 2PL",false,false,"635","","020 7801 0046","/pubs/all-pubs/england/london/the-asparagus-battersea"
,"80 High Street","Eltham","London",0,"6393aa8f-c80b-41ef-8c09-faae2fb98024",false,false,51.4506797790527,0.0522719994187355,"The Banker’s Draft","SE9 1BW",false,false,"87","","020 8294 2578","/pubs/all-pubs/england/london/the-bankers-draft-eltham"
,"Unit 23, St Pancras International Station","London","",0,"66a020c4-d323-48bc-aedb-40c4fba8c205",false,false,51.5314292907715,-0.126680195331573,"The Barrel Vault","N1C 4QP",false,false,"7498","","020 7837 5151","/pubs/all-pubs/england/london/the-barrel-vault-st-pancras"
,"50–56 Cricklewood Broadway","Cricklewood","London",0,"538c60e7-01fb-400b-9afe-ed31ebae26d4",false,false,51.5535278320313,-0.211524993181229,"The Beaten Docket","NW2 3ET",false,false,"35","","020 8450 2972","/pubs/all-pubs/england/london/the-beaten-docket-cricklewood"
,"407–409 Brixton Road","Brixton","London",0,"7072f11f-200b-42dc-9257-db42c2ae9655",false,false,51.463752746582,-0.114514000713825,"The Beehive","SW9 7DG",false,false,"51","","020 7738 3643","/pubs/all-pubs/england/london/the-beehive-brixton"
,"25–29 Coldharbour Lane","Hayes","London",0,"6aa34b76-e486-435f-8ed6-1d375427cfd4",false,false,51.5081329345703,-0.416617006063461,"The Botwell Inn","UB3 3EB",false,false,"884","","020 8848 3112","/pubs/all-pubs/england/london/the-botwell-inn-hayes"
,"184 Brockley Road","Brockley","London",0,"e43f349c-70e4-4a7a-9265-1dca1f264faf",false,false,51.4641380310059,-0.0364169999957085,"The Brockley Barge","SE4 2RR",false,false,"1006","","020 8694 7690","/pubs/all-pubs/england/london/the-brockley-barge-brockley"
,"11–21 London Road","Forest Hill","London",0,"7c2bde6d-f0ab-40e2-905a-db87f4f41618",false,false,51.4391479492188,-0.0547920018434525,"The Capitol","SE23 3TW",false,false,"1686","","020 8291 8920","/pubs/all-pubs/england/london/the-capitol-forest-hill"
,"Unit 1, West 12 Shopping Centre","Shepherds Bush","London",0,"6881a36c-7798-4009-8195-9d7f051605b1",false,false,51.5038719177246,-0.219394996762276,"The Central Bar","W12 8PH",false,false,"4030","","020 8746 4290","/pubs/all-pubs/england/london/the-central-bar-shepherds-bush"
,"St Mark’s Hill","Surbiton","London",0,"1e50ee80-6ac4-4b6b-bc88-b3e9a5772b94",false,false,51.3935203552246,-0.303705006837845,"The Coronation Hall","KT6 4LQ",false,false,"453","","020 8390 6164","/pubs/all-pubs/england/london/the-coronation-hall-surbiton"
,"338–346 Holloway Road","Holloway","London",0,"3b2cce00-0f09-47bd-80e9-8578d06996fd",false,false,51.5555152893066,-0.115776002407074,"The Coronet","N7 6NJ",false,false,"279","","020 7609 5014","/pubs/all-pubs/england/london/the-coronet-holloway"
,"9 Gracechurch Street","City of London","London",0,"60c402f2-131d-4093-a7b4-9d0febb9ca3b",false,false,51.5127258300781,-0.0846569985151291,"The Crosse Keys","EC3V 0DR",false,false,"364","","020 7623 4824","/pubs/all-pubs/england/london/the-crosse-keys-city-of-london"
,"557–559 Lea Bridge Road","Leyton","London",0,"e0e38e0e-97c5-4631-9588-e7c7cc7e11fd",false,false,51.5749206542969,-0.0137210004031658,"The Drum","E10 7EQ",false,false,"16","","020 8539 9845","/pubs/all-pubs/england/london/the-drum-leyton"
,"Lee Gate Centre","Lee Green","London",0,"728bc4b6-7c67-470f-817e-f52e1a0850b2",false,false,51.4554595947266,0.011735999956727,"The Edmund Halley","SE12 8RG",false,false,"1019","","020 8318 7475","/pubs/all-pubs/england/london/the-edmund-halley-lee-green"
,"149 Denmark Hill","Camberwell","London",0,"95ce604b-027b-458e-b22f-46a7aadd9856",false,false,51.4648666381836,-0.0900200009346008,"The Fox on the Hill","SE5 8EH",false,false,"134","","020 7738 4756","/pubs/all-pubs/england/london/the-fox-on-the-hill-camberwell"
,"8–9 Russell Hill Parade","Purley","London",0,"8ef88ddb-c9ce-48f7-84de-bb18d5b1020e",false,false,51.3393821716309,-0.117581002414227,"The Foxley Hatch","CR8 2LE",false,false,"109","","020 8763 9307","/pubs/all-pubs/england/london/the-foxley-hatch-purley"
,"Broadway Sq, 6 Market Place","Bexleyheath","London",0,"b7f654bf-70cb-4714-9f86-002dfd8b0142",false,false,51.4566040039063,0.14767299592495,"The Furze Wren","DA6 7DY",false,false,"2862","","020 8298 2590","/pubs/all-pubs/england/london/the-furze-wren-bexleyheath"
,"Cutty Sark Station","Greenwich","London",0,"77ae7ecb-f1f7-4959-9334-937ecc4d008b",false,false,51.4814872741699,-0.0111320000141859,"The Gate Clock","SE10 9RB",false,false,"585","","020 8269 2000","/pubs/all-pubs/england/london/the-gate-clock-greenwich"
,"17–21 George Street","Croydon","London",0,"d6766814-172d-4329-bd48-e90321cf8043",false,false,51.3740501403809,-0.0984390005469322,"The George","CR0 1LA",false,false,"50","","020 8649 9077","/pubs/all-pubs/england/london/the-george-croydon"
,"155–159 High Street","Wanstead","London",0,"9bc5c5eb-ff03-482d-93ff-ef0d9813a7b0",false,false,51.5759468078613,0.0281729996204376,"The George","E11 2RL",false,false,"46","","020 8989 2921","/pubs/all-pubs/england/london/the-george-wanstead"
,"132 High Street","Uxbridge","London",0,"551a88d8-966d-471b-b298-fa0b9bd810ef",false,false,51.5477867126465,-0.480843007564545,"The Good Yarn","UB8 1JX",false,false,"112","","01895 239852","/pubs/all-pubs/england/london/the-good-yarn-uxbridge"
,"7–9 Wellington Street","Woolwich","London",0,"d71414fc-7b22-4b06-8fc0-720ec21d4845",false,false,51.4899749755859,0.0669170022010803,"The Great Harry","SE18 6PQ",false,false,"1139","","020 8853 9460","/pubs/all-pubs/england/london/the-great-harry-woolwich"
,"674 Whitton Avenue West","London","",0,"b90d8605-f5bb-4ed3-b388-dc2ec54985cc",false,true,51.5527992248535,-0.35156661272049,"The Greenwood Hotel","UB5 4LA",false,false,,"","020 8423 6169","/hotels/england/london/the-greenwood-hotel"
,"674 Whitton Avenue West			","Northolt	","London",0,"f70ff3ef-bd40-4318-9831-bb2c51350116",false,false,51.5530204772949,-0.351426512002945,"The Greenwood Hotel","UB5 4LA",false,false,"7337","","020 8423 6169","/pubs/all-pubs/england/london/the-greenwood-hotel-northolt"
,"205 High Street","Bromley","London",0,"0e91105f-ea35-4e15-bb1b-da66efae8e2f",false,false,51.4063720703125,0.0132330004125834,"The Greyhound","BR1 1NY",false,false,"6364","","020 8315 0250","/pubs/all-pubs/england/london/the-greyhound-bromley"
,"213–223 Mile End Road","Mile End","London",0,"0efd260b-4115-493f-a38a-e5e4f7cb9845",false,false,51.5221939086914,-0.0453159995377064,"The Half Moon","E1 4AA",false,false,"590","","020 7790 6810","/pubs/all-pubs/england/london/the-half-moon-mile-end"
,"141–143 High Street","Orpington","London",0,"e1c7eb10-a387-47b5-b0f6-c2d00a19c4f0",false,false,51.3778457641602,0.101116999983788,"The Harvest Moon","BR6 0LQ",false,false,"133","","01689 876931","/pubs/all-pubs/england/london/the-harvest-moon-orpington"
,"107–109 Streatham High Road","Streatham","London",0,"06ee953f-15e3-4a28-8dc8-0c0db3784fef",false,false,51.43017578125,-0.129822999238968,"The Holland Tringham","SW16 1HJ",false,false,"469","","020 8769 3062","/pubs/all-pubs/england/london/the-holland-tringham-streatham"
,"1–5 Upton Lane","Forest Gate","London",0,"40cc1af9-59c0-4600-a088-cc27b31d997c",false,false,51.5458106994629,0.0260249990969896,"The Hudson Bay","E7 9PA",false,false,"703","","020 8471 7702","/pubs/all-pubs/england/london/the-hudson-bay-forest-gate"
,"Units 1–2, Suffolk Wharf","Camden","London",0,"eb0d5e49-61e7-40b9-9f6d-cb79030f3fd9",false,false,51.5408744812012,-0.145664006471634,"The Ice Wharf","NW1 7BY",false,false,"2450","","020 7428 3770","/pubs/all-pubs/england/london/the-ice-wharf-camden"
,"71–79 Peckham High Street","Peckham","London",0,"82ee142c-b46f-4402-a65f-da96dd0cc812",false,false,51.4735488891602,-0.0700120031833649,"The Kentish Drovers","SE15 5RS",false,false,"638","","020 7277 4283","/pubs/all-pubs/england/london/the-kentish-drovers-peckham"
,"250–252 Chingford Mount Road","Chingford","London",0,"10cd57d2-cb84-4264-ad45-9a2bd671b448",false,false,51.6163482666016,-0.0172819998115301,"The King’s Ford","E4 8JL",false,false,"214","","020 8523 9365","/pubs/all-pubs/england/london/the-kings-ford-chingford"
,"153–157 Clarence Street","Kingston upon Thames","London",0,"99316996-c6b9-40c0-9510-e5631bf4160b",false,false,51.4114685058594,-0.300592005252838,"The Kings Tun","KT1 1QT",false,false,"266","","020 8547 3827","/pubs/all-pubs/england/london/the-kings-tun-kingston-upon-thames"
,"95 Chancery Lane","Near Fleet Street","London",0,"7a9cf68f-79e4-4c60-b659-a1180f4672ca",false,false,51.5152587890625,-0.111948996782303,"The Knights Templar","WC2A 1DT",false,false,"538","","020 7831 2660","/pubs/all-pubs/england/london/the-knights-templar-near-fleet-street"
,"4 Hertsmere Road","Docklands","London",0,"f8175e76-5a99-455f-8f86-2b5e090639d8",false,false,51.5075645446777,-0.0245440006256104,"The Ledger Building","E14 4AL",false,false,"1637","","020 7536 7770","/pubs/all-pubs/england/london/the-ledger-building-docklands"
,"15 Trinity Square","Tower of London","London",0,"eb6e22af-56c5-461f-b5b5-6fb5ec22834b",false,false,51.509693145752,-0.0785629972815514,"The Liberty Bounds","EC3N 4AA",false,false,"550","","020 7481 0513","/pubs/all-pubs/england/london/the-liberty-bounds-tower-of-london"
,"109 Rushey Green","Catford","London",0,"201b5377-0960-496e-a931-284ca5e8c406",false,false,51.4470138549805,-0.0183470007032156,"The London & Rye","SE6 4AF",false,false,"1408","","020 8697 5028","/pubs/all-pubs/england/london/the-london--rye-catford"
,"276–288 Lavender Hill","Battersea","London",0,"d5e677b6-a855-49d1-b48f-49c289afffb5",false,false,51.4640274047852,-0.167484998703003,"The London and South Western","SW11 1LJ",false,false,"7249","","0207 7380834","/pubs/all-pubs/england/london/the-london-and-south-western"
,"168–172 Old Street","Old Street","London",0,"3367338a-7b94-497a-9964-a77214a26d57",false,false,51.5251998901367,-0.0906419977545738,"The Masque Haunt","EC1V 9BP",false,false,"195","","020 7251 4195","/pubs/all-pubs/england/london/the-masque-haunt-old-street"
,"7 Station Approach","Marylebone","London",0,"8b6bb489-f53c-4b37-b92b-469420cc8b74",false,false,51.522518157959,-0.156874999403954,"The Metropolitan Bar","NW1 5LA",false,false,"1106","","020 7486 3489","/pubs/all-pubs/england/london/the-metropolitan-bar-marylebone"
,"Ground Floor, Grants Department Store","Croydon","London",0,"24ef4681-0b0b-4063-b966-833d7d93bb2c",false,false,51.3730545043945,-0.100647002458572,"The Milan Bar","CR0 1YA",false,false,"2757","","020 8603 0870","/pubs/all-pubs/england/london/the-milan-bar-croydon"
,"419–421 Barking Road","East Ham","London",0,"5a680efd-f232-4367-b9a0-96219397d583",false,false,51.5334358215332,0.0563490018248558,"The Miller’s Well","E6 2JX",false,false,"62","","020 8471 8404","/pubs/all-pubs/england/london/the-millers-well-east-ham"
,"105–107 Charing Cross Road","West End","London",0,"e39e1ae3-8b6e-4f83-93a2-885f44c1c907",false,false,51.5140533447266,-0.129739999771118,"The Montagu Pyke","WC2H 0BP",false,false,"188","","020 7287 6039","/pubs/all-pubs/england/london/the-montagu-pyke-west-end"
,"164–166 High Street","Penge","London",0,"6b29955b-d109-4854-9374-239a0ed509e9",false,false,51.4127464294434,-0.0508849993348122,"The Moon & Stars","SE20 7QS",false,false,"71","","020 8776 5680","/pubs/all-pubs/england/london/the-moon--stars-penge"
,"250 Uxbridge Road","Hatch End","London",0,"3fdd8998-9d1d-4c71-a8db-b0a92c5ae366",false,false,51.6083068847656,-0.372714012861252,"The Moon and Sixpence","HA5 4HS",false,false,"37","","020 8420 1074","/pubs/all-pubs/england/london/the-moon-and-sixpence-hatch-end"
,"99–103 South Street","Romford","London",0,"8efe0f67-4c96-4cd1-a936-a0fb0ecc7dbe",false,false,51.5757179260254,0.183145999908447,"The Moon and Stars","RM1 1NX",false,false,"79","","01708 730117","/pubs/all-pubs/england/london/the-moon-and-stars-romford"
,"373–375 Station Road","Harrow","London",0,"9bc99a04-b812-4b57-93f1-3f09ff8fe075",false,false,51.5793762207031,-0.334160000085831,"The Moon on the Hill","HA1 2AW",false,false,"38","","020 8863 3670","/pubs/all-pubs/england/london/the-moon-on-the-hill-harrow"
,"5–9 Hill Road","Sutton","London",0,"2ed427ca-d9b5-483f-b67f-bd6b4760e777",false,false,51.3618927001953,-0.193255007266998,"The Moon on the Hill","SM1 1DZ",false,false,"106","","020 8643 1202","/pubs/all-pubs/england/london/the-moon-on-the-hill-sutton"
,"Unit 30, The Centre","Feltham","London",0,"a83ed877-1c18-454d-8325-b33bd5da521a",false,false,51.446361541748,-0.410088986158371,"The Moon on the Square","TW13 4AU",false,false,"227","","020 8893 1293","/pubs/all-pubs/england/london/the-moon-on-the-square-feltham"
,"10 Varley Parade","Colindale","London",0,"cda914c9-f0c3-4c46-8bb8-0938e3c950a1",false,false,51.5873527526855,-0.251046001911163,"The Moon Under Water","NW9 6RR",false,false,"30","","020 8200 7611","/pubs/all-pubs/england/london/the-moon-under-water-colindale"
,"84–86 Staines Road","Hounslow","London",0,"ac7afff3-a1dd-4828-9734-005dca868354",false,false,51.4670829772949,-0.369405001401901,"The Moon Under Water","TW3 3LF",false,false,"33","","020 8572 7506","/pubs/all-pubs/england/london/the-moon-under-water-hounslow"
,"1327 London Road","Norbury","London",0,"c17fe5c1-4c7c-4ecd-8635-173766bda55f",false,false,51.407096862793,-0.121380001306534,"The Moon Under Water","SW16 4AU",false,false,"81","","020 8765 1235","/pubs/all-pubs/england/london/the-moon-under-water-norbury"
,"28 Leicester Square","West End","London",0,"88b9e867-4923-4243-9b44-48b4544ab345",false,false,51.5102653503418,-0.129424005746841,"The Moon Under Water","WC2H 7LE",false,false,"70","","020 7839 2837","/pubs/all-pubs/england/london/the-moon-under-water-west-end"
,"258 Muswell Hill Broadway","Muswell Hill","London",0,"4311965b-0b98-4025-bd0b-eb3fdf5f7b19",false,false,51.5908737182617,-0.141639992594719,"The Mossy Well","N10 3SH",false,false,"6524","","020 8444 2914","/pubs/all-pubs/england/london/the-mossy-well-muswell-hill"
,"55 Bellegrove Road","Welling","London",0,"6222c10a-fe70-463b-b25a-6732e2906b31",false,false,51.462947845459,0.103909000754356,"The New Cross Turnpike","DA16 3PB",false,false,"728","","020 8304 1600","/pubs/all-pubs/england/london/the-new-cross-turnpike-welling"
,"80–84 Chase Side","Southgate","London",0,"ac99c8e9-7566-4e10-9adb-231af9295af3",false,false,51.6333160400391,-0.130591005086899,"The New Crown","N14 5PH",false,false,"101","","020 8882 8758","/pubs/all-pubs/england/london/the-new-crown-southgate"
,"25–26 Kenton Park Parade","Harrow","London",0,"20d1a8ae-cdff-4506-ae86-324a75b3f3e3",false,false,51.5872421264648,-0.304293990135193,"The New Moon","HA3 8DN",false,true,"4","","020 8909 1103","/pubs/all-pubs/england/london/the-new-moon-harrow"
,"552–556 London Road","North Cheam","London",0,"f6ec2e45-3137-4988-886f-37cdb949c6b5",false,false,51.3724670410156,-0.226120993494987,"The Nonsuch Inn","SM3 9AA",false,false,"154","","020 8644 1808","/pubs/all-pubs/england/london/the-nonsuch-inn-north-cheam"
,"120–124 King Street","Hammersmith","London",0,"56c9d687-863e-4e96-972c-13d1d94eca56",false,false,51.4926643371582,-0.231469005346298,"The Plough & Harrow","W6 0QU",false,false,"2175","","020 8735 6020","/pubs/all-pubs/england/london/the-plough--harrow-hammersmith"
,"196–198 Tower Bridge Road","Tower Bridge (South)","London",0,"6ac937c7-1463-4a0b-b77e-0ce9293149e5",false,false,51.5023651123047,-0.077334001660347,"The Pommelers Rest","SE1 2UN",false,false,"487","","020 7378 1399","/pubs/all-pubs/england/london/the-pommelers-rest-tower-bridge-south"
,"13 East Barnet Road","Barnet","London",0,"d982f1a8-a110-40d0-ae46-79d9311d70e4",false,false,51.6503791809082,-0.173008993268013,"The Railway Bell","EN4 8RR",false,false,"9","","020 8449 1369","/pubs/all-pubs/england/london/the-railway-bell-barnet"
,"281 High Street","Acton","London",0,"3419f709-ab3e-4291-b83f-c9092e42d984",false,false,51.5082664489746,-0.276565998792648,"The Red Lion & Pineapple","W3 9BP",false,false,"59","","020 8896 2248","/pubs/all-pubs/england/london/the-red-lion--pineapple-acton"
,"23 Westmoreland Place","Bromley","London",0,"67e33df7-3408-4ad5-890e-7167342a8344",false,false,51.3996696472168,0.0167440008372068,"The Richmal Crompton","BR1 1DS",false,false,"704","","020 8464 1586","/pubs/all-pubs/england/london/the-richmal-crompton-bromley"
,"143–145 Stoke Newington High Street","Stoke Newington","London",0,"068217d0-cf19-41d7-a34a-fe85108decae",false,false,51.5609588623047,-0.0739760026335716,"The Rochester Castle","N16 0NY",false,false,"3","","020 7249 6016","/pubs/all-pubs/england/london/the-rochester-castle-stoke-newington"
,"Putney Wharf Tower, Brewhouse Lane","Putney","London",0,"74c41c09-8828-4e56-b19d-1cfd1e8f8604",false,false,51.4656028747559,-0.212938994169235,"The Rocket","SW15 2JQ",false,false,"6283","","020 8780 8970","/pubs/all-pubs/england/london/the-rocket-putney"
,"Metro Central Heights","Elephant & Castle","London",0,"68de16fb-0630-4250-99c5-d7353c27bc50",false,false,51.4960823059082,-0.0997269973158836,"The Rockingham Arms","SE1 6BN",false,false,"1260","","020 7940 0890","/pubs/all-pubs/england/london/the-rockingham-arms-elephant--castle"
,"Cannon Street Station, Cannon Street","London","London",0,"1148a8ca-c21c-479f-a684-9a894985ed4e",false,false,51.511360168457,-0.0902509987354279,"The Sir John Hawkshaw","EC4N 6AP",false,false,"7077","","020 3206 1004","/pubs/all-pubs/england/london/the-sir-john-hawkshaw-london"
,"29–35 Farringdon Road","Farringdon","London",0,"0f0e50c9-7502-402f-ad42-8e9d10c506cd",false,false,51.5198173522949,-0.105881996452808,"The Sir John Oldcastle","EC1M 3JF",false,false,"430","","020 7242 1013","/pubs/all-pubs/england/london/the-sir-john-oldcastle-farringdon"
,"152–154 Addington Road","Selsdon","London",0,"8f9b3b2a-fed6-4ed9-9f6f-37b4871a3f5d",false,false,51.3434448242188,-0.0625189989805222,"The Sir Julian Huxley","CR2 8LB",false,false,"1249","","020 8657 9457","/pubs/all-pubs/england/london/the-sir-julian-huxley-selsdon"
,"46–47 The Mall","Ealing","London",0,"59700dbc-e089-4a41-a874-94fd94370b95",false,false,51.5136032104492,-0.298768013715744,"The Sir Michael Balcon","W5 3TJ",false,false,"6014","","020 8799 2850","/pubs/all-pubs/england/london/the-sir-michael-balcon-ealing"
,"34–36 South End","Croydon","London",0,"9a64dc72-3ed7-4b59-b010-2dca97671256",false,false,51.3661575317383,-0.0991989970207214,"The Skylark","CR0 1DP",false,false,"337","","020 8649 9909","/pubs/all-pubs/england/london/the-skylark-croydon"
,"109–111 Queensway","Petts Wood","London",0,"22347b96-1a08-4652-831d-426b28af2ff4",false,false,51.3893241882324,0.0721379965543747,"The Sovereign of the Seas","BR5 1DG",false,false,"140","","01689 891606","/pubs/all-pubs/england/london/the-sovereign-of-the-seas-petts-wood"
,"185 Lower Road","Rotherhithe","London",0,"41829cc6-ea93-4fd8-8a25-272b8d627866",false,false,51.4930534362793,-0.0465900003910065,"The Surrey Docks","SE16 2LW",false,false,"467","","020 7394 2832","/pubs/all-pubs/england/london/the-surrey-docks-rotherhithe"
,"47–49 Sidcup High Street","Sidcup","London",0,"da27a1a4-9215-485a-8d80-1dd24f76ef9f",false,false,51.4261627197266,0.10351300239563,"The Tailor’s Chalk","DA14 6ED",false,false,"6151","","020 8308 6880","/pubs/all-pubs/england/london/the-tailors-chalk-sidcup"
,"11 Swakeleys Road","Ickenham","London",0,"02a98064-6ad7-47f3-a6d4-5937b26345cf",false,false,51.5644493103027,-0.44472399353981,"The Tichenham Inn","UB10 8DF",false,false,"707","","01895 678916","/pubs/all-pubs/england/london/the-tichenham-inn-ickenham"
,"26–30 Turnpike Lane","Harringay","London",0,"e673d615-c964-414d-a52e-a314e5a844e2",false,false,51.5899505615234,-0.105232000350952,"The Toll Gate","N8 0PS",false,false,"18","","020 8889 9085","/pubs/all-pubs/england/london/the-toll-gate-harringay"
,"402–408 Rayners Lane","Rayners Lane","London",0,"49bd6ae3-c357-4cbf-beb2-662876f7ecfb",false,false,51.5769004821777,-0.370988011360168,"The Village Inn","HA5 5DY",false,false,"53","","020 8868 8551","/pubs/all-pubs/england/london/the-village-inn-rayners-lane"
,"857–861 High Road","Leytonstone","London",0,"af844925-c78f-438e-b50c-a590757db9ab",false,false,51.5697898864746,0.0128790000453591,"The Walnut Tree","E11 1HH",false,false,"433","","020 8539 2526","/pubs/all-pubs/england/london/the-walnut-tree-leytonstone"
,"198–204 High Street","Lewisham","London",0,"4c01ccbd-2c1f-4df7-bdac-5fd4c5275901",false,false,51.4599456787109,-0.0116400001570582,"The Watch House","SE13 6JP",false,false,"254","","020 8318 3136","/pubs/all-pubs/england/london/the-watch-house-lewisham"
,"184 High Street","New Malden","London",0,"03691482-5c1e-48b6-8f1e-380be0e31e10",false,false,51.398868560791,-0.255329012870789,"The Watchman","KT3 4ES",false,false,"5447","","020 8329 0450","/pubs/all-pubs/england/london/the-watchman-new-malden"
,"25 Ross Parade","Wallington","London",0,"401116c9-769c-42f8-b0d4-4cbc24fda0d3",false,false,51.3600654602051,-0.149607002735138,"The Whispering Moon","SM6 8QF",false,false,"55","","020 8647 7020","/pubs/all-pubs/england/london/the-whispering-moon-wallington"
,"255–256 Upper Street","Islington","London",0,"1e1f4775-f4c2-4950-bfcb-71b845663bbb",false,false,51.5457382202148,-0.103410996496677,"The White Swan","N1 1RY",false,false,"1732","","020 7288 9050","/pubs/all-pubs/england/london/the-white-swan-islington"
,"6–12 Gladstone Road","Wimbledon","London",0,"b3e5a290-d1d2-436c-bbc2-17e36c5fbdcd",false,false,51.4191665649414,-0.202660992741585,"The Wibbas Down Inn","SW19 1QT",false,false,"221","","020 8540 6788","/pubs/all-pubs/england/london/the-wibbas-down-inn-wimbledon"
,"Swan Island","Hammersmith","London",0,"e453f851-4435-4f6a-be24-ff44ed3b5a5e",false,false,51.4930152893066,-0.225152000784874,"The William Morris","W6 0QA",false,false,"166","","020 8741 7175","/pubs/all-pubs/england/london/the-william-morris-hammersmith"
,"24 London Road","Twickenham","London",0,"4fd4b710-9efd-4764-bfe2-062ec8e6452a",false,false,51.4475898742676,-0.328530013561249,"The William Webb Ellis","TW1 3RR",false,false,"2650","","020 8744 4300","/pubs/all-pubs/england/london/the-william-webb-ellis-twickenham"
,"25 Wilton Road","Victoria","London",0,"1c3d3a51-9b7d-416f-963e-e4abc74d34d5",false,false,51.4950256347656,-0.142529994249344,"The Willow Walk","SW1V 1LW",false,false,"1169","","020 7828 2953","/pubs/all-pubs/england/london/the-willow-walk-victoria"
,"113–117 South Street","Romford","London",0,"f80e816e-7484-4974-b160-c2bb3b7320c5",false,false,51.5759010314941,0.182543992996216,"The World’s Inn","RM1 1NX",false,false,"6017","","01708 333120","/pubs/all-pubs/england/london/the-worlds-inn-romford"
,"234–236 The Broadway","Bexleyheath","London",0,"91050330-8b8a-44ee-aa6b-5fc19dfb4952",false,false,51.4577445983887,0.137446999549866,"The Wrong ’Un","DA6 8AS",false,false,"100","","020 8298 0439","/pubs/all-pubs/england/london/the-wrong-un-bexleyheath"
,"Unit 5 (1st Floor above WHSmith)","Victoria Station Concourse","London",0,"d29ffd36-a025-4b3b-9474-749a36e22951",false,false,51.4952964782715,-0.144408002495766,"Wetherspoons","SW1V 1JT",false,false,"64","","020 7931 0445","/pubs/all-pubs/england/london/wetherspoons-victoria-station-concourse"
,"28–30 Park Row","Leeds","West Yorkshire",0,"f698ca74-2996-4a05-aad7-93b2f383cad9",false,false,53.7985801696777,-1.54728496074677,"Beckett's Bank","LS1 5HU",false,false,"246","","0113 394 5900","/pubs/all-pubs/england/west-yorkshire/becketts-bank-leeds"
,"16, Merrion Way","Leeds","West Yorkshire",0,"2c473bec-34af-4694-8c30-3bca45bb1312",false,false,53.802791595459,-1.54327940940857,"Stick or Twist ","LS2 8PT",false,false,"7517","","0113 887 6880","/pubs/all-pubs/england/west-yorkshire/stick-or-twist"
,"17 Rawson Street","Halifax","West Yorkshire",0,"f162faf2-8180-41b7-bf64-a550b24bf060",false,false,53.7216796875,-1.86274099349976,"The Barum Top Inn","HX1 1NX",false,false,"446","","01422 300488","/pubs/all-pubs/england/west-yorkshire/the-barum-top-inn-halifax"
,"8 Cross Hill","Pontefract","West Yorkshire",0,"30939cea-5494-46ff-a57c-054b0690a9e8",false,false,53.6135520935059,-1.35426104068756,"The Blue Bell","WF9 4LQ",false,false,"7104","","01977 624930","/pubs/all-pubs/england/west-yorkshire/the-blue-bell-pontefract"
,"18 Bondgate","Otley","West Yorkshire",0,"890ed6c8-c892-411b-92de-5fab68fce5df",false,false,53.9042053222656,-1.69289898872375,"The Bowling Green","LS21 3AB",false,false,"5523","","01943 858980","/pubs/all-pubs/england/west-yorkshire/the-bowling-green-otley"
,"37 Main Street","Leeds","West Yorkshire",0,"70cbc1db-610f-4ede-95eb-57f98ee5d9dc",false,false,53.7935218811035,-1.3883341550827,"The Briggate","LS25 1DS",false,false,"7283","","01133 854500","/pubs/all-pubs/england/west-yorkshire/the-briggate-leeds"
,"5 Horsefair","Pontefract","West Yorkshire",0,"e99f689d-9580-4861-98e8-88a12ebc2bfa",false,false,53.692554473877,-1.30939900875092,"The Broken Bridge","WF8 1PD",false,false,"5683","","01977 781640","/pubs/all-pubs/england/west-yorkshire/the-broken-bridge-pontefract"
,"39/41 Austhorpe Road","Leeds","West Yorkshire",0,"530306da-3cc6-4d57-b047-c9a6451f415f",false,false,53.8074722290039,-1.45103585720062,"The Charles Henry Roe","LS15 8BA",false,false,"7402","","0113 264 3970","/pubs/all-pubs/england/west-yorkshire/the-charles-henry-roe"
,"Pearl Assurance House","Huddersfield","West Yorkshire",0,"1d251504-4c1f-4657-a493-354361dd3bea",false,false,53.647403717041,-1.78239798545837,"The Cherry Tree","HD1 1BA",false,false,"1536","","01484 448190","/pubs/all-pubs/england/west-yorkshire/the-cherry-tree-huddersfield"
,"56 High Street","Leeds","West Yorkshire",0,"f49e4a79-13b2-433f-9a84-58bbf1255038",false,false,53.8661117553711,-1.68158602714539,"The Clothier’s Arms","LS19 7PP",false,false,"7153","","0113 238 6970","/pubs/all-pubs/england/west-yorkshire/the-clothiers-arms-leeds"
,"The Wharf, 31 Wharf Street","Sowerby Bridge","West Yorkshire",0,"e4e07aac-ebfa-404e-a66f-323666639e25",false,false,53.7095375061035,-1.90780103206635,"The Commercial Inn","HX6 2LA",false,false,"6976","","01422 317350","/pubs/all-pubs/england/west-yorkshire/the-commercial-inn-sowerby-bridge"
,"11 Manor House Street","Leeds","West Yorkshire",0,"b0eb68a9-6beb-4e67-9c63-0ca940f40f51",false,false,53.7965049743652,-1.6618560552597,"The Crossed Shuttle","LS28 7BJ",false,false,"6633","","0113 205 8190","/pubs/all-pubs/england/west-yorkshire/the-crossed-shuttle-leeds"
,"99 Portland Crescent","Leeds","West Yorkshire",0,"e794a464-5400-413f-8069-12f17a890e26",false,false,53.8017463684082,-1.5478880405426,"The Cuthbert Brodrick","LS2 3AD",false,false,"5482","","0113 204 8570","/pubs/all-pubs/england/west-yorkshire/the-cuthbert-brodrick-leeds"
,"15 Bank Street","Castleford","West Yorkshire",0,"35bbde8f-e95e-422d-a80c-8b424ab0ff16",false,false,53.7269401550293,-1.35385298728943,"The Glass Blower","WF10 1JD",false,false,"855","","01977 520390","/pubs/all-pubs/england/west-yorkshire/the-glass-blower-castleford"
,"Headingley Lane","Headingley","West Yorkshire",0,"c00ce0fd-f769-4d15-b3e6-59d8b7cbcc07",false,false,53.8169288635254,-1.57093119621277,"The Golden Beam ","LS6 1BL",false,false,"5713","","0113 278 8521","/pubs/all-pubs/england/west-yorkshire/the-golden-beam"
,"43a Woodhouse Lane","Leeds","West Yorkshire",0,"8e2ab2b4-93f8-4ad1-8a5f-367c73357f29",false,false,53.8020057678223,-1.5456850528717,"The Hedley Verity","LS1 3HQ",false,false,"6206","","0113 390 7590","/pubs/all-pubs/england/west-yorkshire/the-hedley-verity-leeds"
,"14 The Moors Shopping Centre","Ilkley","West Yorkshire",0,"2ccfa368-960c-4ae3-9ce7-9c94d3fdc676",false,false,53.9257392883301,-1.82568895816803,"The Lister Arms","LS29 9LB",false,false,"6693","","01943 811240","/pubs/all-pubs/england/west-yorkshire/the-lister-arms-ilkley"
,"89–97 North Street","Keighley","West Yorkshire",0,"b9153d07-da65-4e50-9359-7e7c39db541a",false,false,53.868724822998,-1.90999901294708,"The Livery Rooms","BD21 3AA",false,false,"4432","","01535 682950","/pubs/all-pubs/england/west-yorkshire/the-livery-rooms-keighley"
,"Unit 27, Kingsgate Centre","Huddersfield","West Yorkshire",0,"a358cb7f-697c-46a2-8737-1802b70a5f14",false,false,53.6456451416016,-1.77913796901703,"The Lord Wilson","HD1 2PZ",false,false,"2314","","01484 411020","/pubs/all-pubs/england/west-yorkshire/the-lord-wilson-huddersfield"
,"141 Main Street","Bingley","West Yorkshire",0,"f27f67fe-84b5-4bc1-b437-eb61c06b2229",false,false,53.8472633361816,-1.83736205101013,"The Myrtle Grove","BD16 1AJ",false,false,"1739","","01274 568637","/pubs/all-pubs/england/west-yorkshire/the-myrtle-grove-bingley"
,"19 Bradford Road","Cleckheaton","West Yorkshire",0,"39941595-c46c-415f-b9d2-308f1d276b1b",false,false,53.7246208190918,-1.71240103244781,"The Obediah Brooke","BD19 3JH",false,false,"1904","","01274 860700","/pubs/all-pubs/england/west-yorkshire/the-obediah-brooke-cleckheaton"
,"165 Town Street","Leeds","West Yorkshire",0,"2e4ebbd8-df65-4081-b73a-8c9e0bd1049f",false,false,53.8109245300293,-1.62730395793915,"The Old Unicorn","LS13 3NA",false,false,"7207","","0113 255 5001","/pubs/all-pubs/england/west-yorkshire/the-old-unicorn-leeds"
,"Broad Street","Halifax","West Yorkshire",0,"062a15b2-9463-44f7-a760-08de5258c187",false,false,53.7251014709473,-1.85988199710846,"The Percy Shaw","HX1 1YA",false,false,"6399","","01422 339500","/pubs/all-pubs/england/west-yorkshire/the-percy-shaw-halifax"
,"117/117a Queen Street","Leeds","West Yorkshire",0,"50c0bd10-2107-4180-a122-f3f6288f3eb2",false,false,53.7441711425781,-1.60005903244019,"The Picture House","LS27 8HE",false,false,"5771","","0113 252 8681","/pubs/all-pubs/england/west-yorkshire/the-picture-house-leeds"
,"Bethel Street","Brighouse","West Yorkshire",0,"28f0b054-a014-43f3-91e2-49fee217082e",false,false,53.7014007568359,-1.77992594242096,"The Richard Oastler","HD6 1JN",false,false,"937","","01484 401756","/pubs/all-pubs/england/west-yorkshire/the-richard-oastler-brighouse"
,"Victoria House","Shipley","West Yorkshire",0,"97f62da3-51c0-4c35-926d-c0966e78c55a",false,false,53.8339385986328,-1.77693200111389,"The Sir Norman Rae","BD18 3QB",false,false,"2554","","01274 535290","/pubs/all-pubs/england/west-yorkshire/the-sir-norman-rae-shipley"
,"41–43 Kirkgate","Wakefield","West Yorkshire",0,"451381f0-d871-4832-af41-5a0fd27b04de",false,false,53.682918548584,-1.4943460226059,"The Six Chimneys","WF1 1HX",false,false,"451","","01924 239449","/pubs/all-pubs/england/west-yorkshire/the-six-chimneys-wakefield"
,"13 Harrogate Road","Leeds","West Yorkshire",0,"0b282bc2-a0da-4d60-9e2e-8d81d68bdbd0",false,false,53.8260765075684,-1.5353239774704,"The Three Hulats","LS7 3NB",false,false,"546","","0113 262 0524","/pubs/all-pubs/england/west-yorkshire/the-three-hulats-leeds"
,"Unit D, Centenary Square","Bradford","West Yorkshire",0,"d99ea625-45e0-4547-9b5d-437d5885d356",false,false,53.7930335998535,-1.75483798980713,"The Turls Green","BD1 1HY",false,false,"4219","","01274 718330","/pubs/all-pubs/england/west-yorkshire/the-turls-green-bradford"
,"4 Hick Lane","Batley","West Yorkshire",0,"29d0cd0d-97cc-498f-86c2-dae3ebcd7176",false,false,53.7126388549805,-1.6285879611969,"The Union Rooms","WF17 5HW",false,false,"2080","","01924 448990","/pubs/all-pubs/england/west-yorkshire/the-union-rooms-batley"
,"Station Approach","Todmorden","West Yorkshire",0,"f43f7e68-f652-4943-879f-724aaf6080cb",false,false,53.7142448425293,-2.09800410270691,"The White Hart","OL14 7BD",false,false,"6767","","01706 811760","/pubs/all-pubs/england/west-yorkshire/the-white-hart-todmorden"
,"Xscape","Castleford","West Yorkshire",0,"f2dcd27d-183d-4f25-b892-4dc774607ae2",false,false,53.7101745605469,-1.34189605712891,"The Winter Seam","WF10 4TA",false,false,"2779","","01977 664610","/pubs/all-pubs/england/west-yorkshire/the-winter-seam-castleford"
,"North Concourse","Leeds","West Yorkshire",0,"cf98287a-2ce8-417a-9f78-f3eabfcc8d1d",false,false,53.7941665649414,-1.54758596420288,"Wetherspoons","LS1 4DY",false,false,"643","","0113 247 1676","/pubs/all-pubs/england/west-yorkshire/wetherspoons-leeds"
,"Knightstone Road","Weston-super-Mare","Somerset",0,"57cc1300-0f20-4163-80b7-7e8a5b6e2fee",false,true,51.3505172729492,-2.98255300521851,"Cabot Court Hotel","BS23 2AH",false,false,,"","01934 427930","/hotels/england/somerset/cabot-court-hotel"
,"Knightstone Road","Weston-super-Mare","Somerset",0,"176e19ac-b53b-4418-bcbf-2f16fadca8a5",false,false,51.3505172729492,-2.98255300521851,"Cabot Court Hotel","BS23 2AH",false,false,"6255","","01934 427930","/pubs/all-pubs/england/somerset/cabot-court-hotel-westonsupermare"
,"The Iron Duke		","Wellington","Somerset",0,"afac6bf1-5e07-431b-9734-fb99185bf89f",false,false,50.9787559509277,-3.22755289077759,"The Iron Duke","TA21 8LS",false,false,"7060","","01823 667899","/pubs/all-pubs/england/somerset/iron-duke-wellington"
,"37 St Mary Street","Bridgwater","Somerset",0,"cd2fea8e-7381-4d5f-b6b0-237647c31a36",false,false,51.1274604797363,-3.00407791137695,"The Carnival Inn","TA6 3LY",false,false,"2346","","01278 726180","/pubs/all-pubs/england/somerset/the-carnival-inn-bridgwater"
,"49–51 Fore Street","Chard","Somerset",0,"76077119-96b9-4c15-aba9-817f6af1fcd2",false,false,50.8731117248535,-2.9626100063324,"The Cerdic","TA20 1QA",false,false,"2337","","01460 260070","/pubs/all-pubs/england/somerset/the-cerdic-chard"
,"30–32 Bridge Street","Taunton","Somerset",0,"bc128a0e-0faa-43e0-9889-4fb97a7a901c",false,false,51.0183372497559,-3.10468006134033,"The Coal Orchard","TA1 1UD",false,false,"2580","","01823 447330","/pubs/all-pubs/england/somerset/the-coal-orchard-taunton"
,"Wellington Square","Minehead","Somerset",0,"d1f8fcc0-a3b6-4802-8c9a-acc84096386d",false,true,51.2052993774414,-3.47933888435364,"The Duke of Wellington","TA24 5NH",false,false,,"","01643 701910","/hotels/england/somerset/the-duke-of-wellington"
,"Wellington Square","Minehead","Somerset",0,"9c09bf27-d8cd-4ab8-b42c-66e43edceaf8",false,false,51.2052993774414,-3.47933888435364,"The Duke of Wellington","TA24 5NH",false,false,"5501","","01643 701910","/pubs/all-pubs/england/somerset/the-duke-of-wellington-minehead"
,"12 Crown Glass Place","Nailsea","Somerset",0,"c348f27f-d26a-4747-9601-4156781e30bf",false,false,51.4321517944336,-2.75840497016907,"The Glassmaker","BS48 1RD",false,false,"6229","","01275 850230","/pubs/all-pubs/england/somerset/the-glassmaker-nailsea"
,"5–10 James Street West","Bath","Somerset",0,"adca0035-af06-4d02-9080-895b5c393743",false,false,51.3809776306152,-2.36458206176758,"The King of Wessex","BA1 2BX",false,false,"2609","","01225 303380","/pubs/all-pubs/england/somerset/the-king-of-wessex-bath"
,"111–113 High Street","Street","Somerset",0,"4ee2bb76-ae40-4982-b9aa-54ab17f234ed",false,false,51.1258354187012,-2.74146008491516,"The Lantokay","BA16 0EY",false,false,"1790","","01458 444940","/pubs/all-pubs/england/somerset/the-lantokay-street"
,"110 High Street","Midsomer Norton","Somerset",0,"bfd6ed96-da83-4d15-a9b0-514514974219",false,false,51.2860794067383,-2.48152184486389,"The Palladium Electric","BA3 2DA",false,false,"6817","","01761 404230","/pubs/all-pubs/england/somerset/the-palladium-electric-midsomer-norton"
,"22–23 East Street","Taunton","Somerset",0,"e58cd607-d231-4d3c-bec8-30dbb5f34a13",false,false,51.0147132873535,-3.09949207305908,"The Perkin Warbeck","TA1 3LP",false,false,"234","","01823 335830","/pubs/all-pubs/england/somerset/the-perkin-warbeck-taunton"
,"Unit 3, Mustad Way","Portishead","Somerset",0,"9b50bbda-e142-4e0c-9fcc-be0412a04291",false,false,51.4859085083008,-2.76591205596924,"The Posset Cup","BS20 7QZ",false,false,"7098","","01275 848008","/pubs/all-pubs/england/somerset/the-posset-cup-portishead"
,"18 Priory Road","Wells","Somerset",0,"437aa17a-9fa3-4e6f-b12c-68057f3021af",false,false,51.2070503234863,-2.64910507202148,"The Quarter Jack","BA5 1SY",false,false,"6507","","01749 836930","/pubs/all-pubs/england/somerset/the-quarter-jack-wells"
,"1 Pier Street","Burnham-on-Sea","Somerset",0,"13adafc0-fca4-42eb-843d-0d21ba3bd01e",false,false,51.2342910766602,-2.99876093864441,"The Reeds Arms","TA8 1BT",false,false,"4439","","01278 764060","/pubs/all-pubs/england/somerset/the-reeds-arms-burnhamonsea"
,"97 Middle Street","Yeovil","Somerset",0,"21f4c3db-b3ee-4c55-976a-4170552225e3",false,false,50.9416160583496,-2.62626910209656,"The William Dampier","BA20 1LN",false,false,"677","","01935 412533","/pubs/all-pubs/england/somerset/the-william-dampier-yeovil"
,"183-185 Queensway","Milton Keynes","Buckinghamshire",0,"73e5bf52-94f0-4113-9d59-2dd17d930359",false,false,51.9955596923828,-0.728601396083832,"Captain Ridley’s Shooting Party","MK2 2ED",false,false,"7426","","01908 621020","/pubs/all-pubs/england/buckinghamshire/captain-ridleys-shooting-party-milton-keynes"
,"40 Market Square","Aylesbury","Buckinghamshire",0,"92aa1526-9e0c-4d28-a584-3005b9a9c6ad",false,true,51.8154830932617,-0.812398016452789,"The Bell","HP20 1TX",false,false,,"","01296 486280","/hotels/england/buckinghamshire/the-bell"
,"40 Market Square","Aylesbury","Buckinghamshire",0,"6ea199a9-3010-41b4-8efb-d443af73c8e5",false,false,51.8154830932617,-0.812398016452789,"The Bell","HP20 1TX",false,false,"6027","","01296 388080","/pubs/all-pubs/england/buckinghamshire/the-bell-aylesbury"
,"9 Cornmarket","High Wycombe","Buckinghamshire",0,"eedc55a5-7c14-41db-bed6-c3a1aedcb982",false,false,51.6293258666992,-0.751335978507996,"The Falcon","HP11 2AX",false,false,"167","","01494 538610","/pubs/all-pubs/england/buckinghamshire/the-falcon-high-wycombe"
,"Unit 1A, Beaconsfield Services, (Junction 2, M40)","Beaconsfield","Buckinghamshire",0,"225cb091-87a6-4b88-b975-73a236b7330d",false,false,51.5876770019531,-0.627520024776459,"The Hope & Champion","HP9 2SE",false,false,"7097","","01494 685530","/pubs/all-pubs/england/buckinghamshire/the-hope--champion-beaconsfield"
,"Xscape","Milton Keynes","Buckinghamshire",0,"80afdc43-fd09-46cc-96b3-9f0c3c561056",false,false,52.0419235229492,-0.748930990695953,"The Moon Under Water","MK9 3NN",false,false,"1195","","01908 528854","/pubs/all-pubs/england/buckinghamshire/the-moon-under-water-milton-keynes"
,"Unit 4, Exchange Street","Aylesbury","Buckinghamshire",0,"774c13fb-5774-4fe5-b921-d7681062db53",false,false,51.8153991699219,-0.809839010238647,"The White Hart","HP20 1UR",false,false,"6402","","01296 468440","/pubs/all-pubs/england/buckinghamshire/the-white-hart-aylesbury"
,"201 Midsummer Boulevard","Milton Keynes","Buckinghamshire",0,"b8526c7e-402c-469f-a568-a8318474a1f4",false,false,52.0375518798828,-0.767557978630066,"Wetherspoons","MK9 1EA",false,false,"152","","01908 606074","/pubs/all-pubs/england/buckinghamshire/wetherspoons-milton-keynes"
,"Chill Factore","Manchester","Manchester",0,"0d945672-3a30-40db-b08f-3de783263750",false,false,53.4686737060547,-2.3610999584198,"Castle in the Air","M17 8DD",false,false,"5647","","0161 746 3930","/pubs/all-pubs/england/manchester/castle-in-the-air-manchester"
,"Units 108–111, The Orient","Manchester","Manchester",0,"8839730c-b005-4ee1-8877-088769d82d09",false,false,53.466178894043,-2.34900498390198,"The Mardi Gras","M17 8EH",false,false,"6520","","0161 629 2130","/pubs/all-pubs/england/manchester/mardi-gras-manchester"
,"13 Regent Street","Eccles","Manchester",0,"c3564946-90f2-4029-953b-98d5f93c0901",false,false,53.4832305908203,-2.33466291427612,"The Eccles Cross","M30 0BP",false,false,"312","","0161 788 0414","/pubs/all-pubs/england/manchester/the-eccles-cross-eccles"
,"10–12 Market Street","Heywood","Manchester",0,"8025cd3a-7506-4a7c-b389-1720496b9b28",false,false,53.5937309265137,-2.22135996818542,"The Edwin Waugh","OL10 4LY",false,false,"835","","01706 621480","/pubs/all-pubs/england/manchester/the-edwin-waugh-heywood"
,"Wilmslow Park","Manchester","Manchester",0,"74686622-4c6c-4dab-9e0d-eb9bc7fdce01",false,false,53.4580841064453,-2.22669696807861,"The Ford Madox Brown","M13 9NG",false,false,"5613","","0161 256 6660","/pubs/all-pubs/england/manchester/the-ford-madox-brown-manchester"
,"Wilmslow Road","Manchester","Manchester",0,"b98a4cf1-876b-4870-ba08-75a9d17535d1",false,false,53.4410095214844,-2.21930289268494,"The Great Central","M14 6NL",false,false,"2809","","0161 248 1740","/pubs/all-pubs/england/manchester/the-great-central-manchester"
,"17–21 Long Street","Middleton","Manchester",0,"07531cfb-185f-48f4-ba5f-03d293048ad6",false,false,53.5501594543457,-2.19805097579956,"The Harbord Harbord","M24 6TE",false,false,"315","","0161 654 6226","/pubs/all-pubs/england/manchester/the-harbord-harbord-middleton"
,"2a Northenden Road","Sale","Manchester",0,"4f536761-b0fb-4116-b913-034d286c0a3c",false,false,53.4240760803223,-2.31755208969116,"The J. P. Joule","M33 3BR",false,false,"511","","0161 962 9889","/pubs/all-pubs/england/manchester/the-j-p-joule-sale"
,"68–74 Deansgate","Manchester","Manchester",0,"af318b97-7e58-48fc-ac87-35374612d6ec",false,false,53.4827461242676,-2.24691009521484,"The Moon Under Water","M3 2FN",false,false,"193","","0161 834 5882","/pubs/all-pubs/england/manchester/the-moon-under-water-manchester"
,"33–35 Oxford Street","Manchester","Manchester",0,"d09e7466-ab67-4d13-b2be-eb3a0691355f",false,false,53.4764518737793,-2.2425479888916,"The Paramount","M1 4BH",false,false,"1015","","0161 233 1820","/pubs/all-pubs/england/manchester/the-paramount-manchester"
,"5–10 Market Place","Bury","Manchester",0,"e07a76ca-f2bc-4287-9c5d-733381ec1e00",false,false,53.5937767028809,-2.29791498184204,"The Robert Peel","BL9 0LD",false,false,"305","","0161 764 7287","/pubs/all-pubs/england/manchester/the-robert-peel-bury"
,"21a Manchester Road","Chorlton-cum-Hardy","Manchester",0,"bd6f7e91-937c-4593-aee8-1bb2f8d77e58",false,false,53.4442367553711,-2.27864003181458,"The Sedge Lynn","M21 9PN",false,false,"1090","","0161 860 0141","/pubs/all-pubs/england/manchester/the-sedge-lynn-chorltoncumhardy"
,"6–8 Dantzic Street","Manchester","Manchester",0,"860de402-f38e-4f3c-b127-f37aa385c054",false,false,53.4850311279297,-2.24004006385803,"The Seven Stars","M4 2BS",false,false,"2099","","0161 817 2980","/pubs/all-pubs/england/manchester/the-seven-stars-manchester"
,"41 Flixton Road","Urmston","Manchester",0,"c3f4d214-4e99-4cec-9861-5c2995797570",false,false,53.4482116699219,-2.35719609260559,"The Tim Bobbin","M41 5AN",false,false,"1103","","0161 749 8239","/pubs/all-pubs/england/manchester/the-tim-bobbin-urmston"
,"17–23 High Street","Oldham","Manchester",0,"7f9898db-cf0d-4a8f-a619-654777f73e4b",false,false,53.5422325134277,-2.11283302307129,"The Up Steps Inn","OL1 3AJ",false,false,"395","","0161 627 5001","/pubs/all-pubs/england/manchester/the-up-steps-inn-oldham"
,"67–71 Princess Street","Manchester","Manchester",0,"4dc4c2f0-8a56-43ad-b1b2-28c940ee9b98",false,false,53.4791717529297,-2.24309897422791,"The Waterhouse","M2 4EG",false,false,"2103","","0161 200 5380","/pubs/all-pubs/england/manchester/the-waterhouse-manchester"
,"49 Piccadilly","Manchester","Manchester",0,"7132267d-3039-4191-839e-d7ad2b9e18dc",false,false,53.4812240600586,-2.23508906364441,"Wetherspoons","M1 2AP",false,false,"192","","0161 236 9206","/pubs/all-pubs/england/manchester/wetherspoons-manchester"
,"Fore Street","Bodmin","Cornwall",0,"281b35d8-7a61-4ed8-ac29-2695241b00f3",false,false,50.4711761474609,-4.72338390350342,"Chapel an Gansblydhen","PL31 2HR",false,false,"5498","","01208 261730","/pubs/all-pubs/england/cornwall/chapel-an-gansblydhen-bodmin"
,"9–11 Coinagehall Street","Helston","Cornwall",0,"195aff2d-dd33-41bb-ac34-c8f27af85b3c",false,false,50.1008224487305,-5.27521419525146,"The Coinage Hall","TR13 8ER",false,false,"7323","","01326 565344","/pubs/all-pubs/england/cornwall/the-coinage-hall-helston"
,"St George’s Hill","Perranporth","Cornwall",0,"7e2dcee3-c1a4-4104-8527-106a64ac533c",false,false,50.3443641662598,-5.15605115890503,"The Green Parrot","TR6 0JP",false,false,"6383","","01872 574990","/pubs/all-pubs/england/cornwall/the-green-parrot-perranporth"
,"Tregenna Place","St Ives","Cornwall",0,"ad7bb3ce-5360-416a-b6fb-757c2e12e644",false,false,50.2114334106445,-5.48080396652222,"The Hain Line","TR26 1SD",false,false,"5958","","01736 792920","/pubs/all-pubs/england/cornwall/the-hain-line-st-ives"
,"Commercial Street","Camborne","Cornwall",0,"32e74084-8c9b-4f3e-bf48-85007957e251",false,true,50.213623046875,-5.30104112625122,"The John Francis Basset","TR14 8JZ",false,false,,"The John Francis Basset, in Camborne, Cornwall, is perfect for a seaside break. This hotel opened in June 2015, and the team is committed to delivering quality customer-service, making them this month's featured hotel.","01209 613230","/hotels/england/cornwall/the-john-francis-basset"
,"Commercial Street","Camborne","Cornwall",0,"17c818cb-26ec-426b-9327-0c33e74e3799",false,false,50.213623046875,-5.30104112625122,"The John Francis Basset","TR14 8JZ",false,false,"6006","","01209 721720","/pubs/all-pubs/england/cornwall/the-john-francis-basset-camborne"
,"The King Doniert","Liskeard","Cornwall",0,"dd6910aa-a9e2-4876-8f59-112f7dac4494",false,false,50.4539680480957,-4.46495389938354,"The King Doniert","PL14 6AB",false,false,"6981","","01579 342 599","/pubs/all-pubs/england/cornwall/the-king-doniert-liskeard"
,"4 The Moor","Falmouth","Cornwall",0,"78763220-55ec-4de8-9759-4ec6eae7f136",false,false,50.15478515625,-5.07306814193726,"The Packet Station","TR11 3QA",false,false,"1033","","01326 310110","/pubs/all-pubs/england/cornwall/the-packet-station-falmouth"
,"Biddicks Court","St Austell","Cornwall",0,"61c1b433-8d73-4f90-af7f-73700d952245",false,false,50.3387489318848,-4.79341220855713,"The Rann Wartha","PL25 5EW",false,false,"5441","","01726 222940","/pubs/all-pubs/england/cornwall/the-rann-wartha-st-austell"
,"12–16 Cliff Road","Newquay","Cornwall",0,"6b02bc01-4251-4d1a-a62b-fe6147b33176",false,false,50.4143905639648,-5.07743787765503,"The Towan Blystra","TR7 1SG",false,false,"1856","","01637 852970","/pubs/all-pubs/england/cornwall/the-towan-blystra-newquay"
,"4–8 Market Place","Penzance","Cornwall",0,"c1f78b47-57c8-42e8-9bea-aaec35c42bd7",false,false,50.118595123291,-5.53672790527344,"The Tremenheere","TR18 2JA",false,false,"1099","","01736 335350","/pubs/all-pubs/england/cornwall/the-tremenheere-penzance"
,"Lemon Quay","Truro","Cornwall",0,"69445083-1eb8-4e1b-8ff3-a7c3fea28f22",false,false,50.2621879577637,-5.05030822753906,"Try Dowr","TR1 2LW",false,false,"5376","","01872 265840","/pubs/all-pubs/england/cornwall/try-dowr-truro"
,"Market Square","Goole","East Yorkshire",0,"80f069fc-f918-480a-b201-e0502a831af5",false,false,53.7035293579102,-0.871177017688751,"City and County","DN14 5DR",false,false,"1977","","01405 722600","/pubs/all-pubs/england/east-yorkshire/city-and-county-goole"
,"1 Anlaby Road","Kingston Upon Hull","East Yorkshire	",0,"b421da16-4472-422c-ab4c-604d9bf5cc26",false,true,53.7431983947754,-0.3437460064888,"The Admiral of the Humber","HU1 2NT",false,false,,"","01482 324 030","/hotels/england/east-yorkshire/the-admiral-of-the-humber"
,"1 Anlaby Road","Kingston Upon Hull","East Yorkshire",0,"d8737702-ea01-4ca5-a258-05f96ca340f8",false,false,53.7431983947754,-0.3437460064888,"The Admiral of the Humber","HU1 2NT",false,false,"1699","","01482 381850","/pubs/all-pubs/england/east-yorkshire/the-admiral-of-the-humber-kingston-upon-hull"
,"Middle Street North","Driffield","East Yorkshire",0,"934876b7-9404-4142-8ed7-194deaac4806",false,false,54.0063323974609,-0.440337985754013,"The Benjamin Fawcett","YO25 6SW",false,false,"6203","","01377 249130","/pubs/all-pubs/england/east-yorkshire/the-benjamin-fawcett-driffield"
,"34–36 Promenade","Bridlington","East Yorkshire",0,"3ba01474-8861-49e0-b2de-6a6ad28034f6",false,false,54.0836524963379,-0.187998995184898,"The Prior John","YO15 2QD",false,false,"1002","","01262 674256","/pubs/all-pubs/england/east-yorkshire/the-prior-john-bridlington"
,"City Exchange, Alfred Gelder Street","Kingston Upon Hull","East Yorkshire",0,"4bd136fc-4d99-4b65-9e5c-adc3a43d6d69",false,false,53.7439804077148,-0.332747012376785,"The Three John Scotts","HU1 1AA",false,false,"1417","","01482 381910","/pubs/all-pubs/england/east-yorkshire/the-three-john-scotts-kingston-upon-hull"
,"72–74 The Parade","Watford","Hertfordshire",0,"7a119a04-bada-4bfc-8fe0-e6d278c21c84",false,false,51.6584548950195,-0.400774985551834,"Colombia Press","WD17 1AW",false,false,"2156","","01923 811540","/pubs/all-pubs/england/hertfordshire/colombia-press-watford"
,"13a Parkhouse Court","Hatfield","Hertfordshire",0,"a364198d-a49f-4d73-9fa4-4693f9746c81",false,false,51.7629547119141,-0.240633994340897,"Harpsfield Hall","AL10 9RQ",false,false,"5480","","01707 265840","/pubs/all-pubs/england/hertfordshire/harpsfield-hall-hatfield"
,"186–192 Darkes Lane","Potters Bar","Hertfordshire",0,"f078cf92-35fb-4be2-bff5-35419f914188",false,false,51.6996040344238,-0.190229997038841,"The Admiral Byng","EN6 1AF",false,false,"566","","01707 645484","/pubs/all-pubs/england/hertfordshire/the-admiral-byng-potters-bar"
,"5 Sun Street","Hitchin","Hertfordshire",0,"dd271058-9657-4477-9239-a4482cf77911",false,false,51.9465751647949,-0.278658002614975,"The Angel Vaults Inn","SG5 1AE",false,false,"6427","","01462 438633","/pubs/all-pubs/england/hertfordshire/the-angel-vaults-inn-hitchin"
,"145 High Street","Berkhamsted","Hertfordshire",0,"93dd1230-a376-4626-98c3-79f8d88f2198",false,false,51.7597961425781,-0.563153982162476,"The Crown","HP4 3HH",false,false,"473","","01442 863993","/pubs/all-pubs/england/hertfordshire/the-crown-berkhamsted"
,"128 Marlowes","Hemel Hempstead","Hertfordshire",0,"23339ec1-5ff3-41b4-9903-6336fbb01346",false,false,51.7534866333008,-0.472611010074615,"The Full House","HP1 1EZ",false,false,"269","","01442 265512","/pubs/all-pubs/england/hertfordshire/the-full-house-hemel-hempstead"
,"148 Shenley Road","Borehamwood","Hertfordshire",0,"6d2cd586-bac7-4167-921e-d8d7569bfde3",false,false,51.657341003418,-0.272237986326218,"The Hart & Spool","WD6 1EQ",false,false,"120","","020 8953 1883","/pubs/all-pubs/england/hertfordshire/the-hart--spool-borehamwood"
,"14 Melbourn Street","Royston","Hertfordshire",0,"687ab6aa-c63b-4107-afc3-bb7a36b6c4a0",false,false,52.0482711791992,-0.0230269990861416,"The Manor House","SG8 7BZ",false,false,"6849","","01763 250160","/pubs/all-pubs/england/hertfordshire/the-manor-house-royston"
,"104–106 High Street","Waltham Cross","Hertfordshire",0,"58748a40-2e55-4d79-bac6-daf0c227b99e",false,false,51.684944152832,-0.0327679999172688,"The Moon and Cross","EN8 7BX",false,false,"569","","01992 700761","/pubs/all-pubs/england/hertfordshire/the-moon-and-cross-waltham-cross"
,"44 High Street","Watford","Hertfordshire",0,"21475160-131c-4c99-ac12-7d441d5fe7da",false,false,51.6564750671387,-0.397830009460449,"The Moon Under Water","WD17 2BS",false,false,"95","","01923 223559","/pubs/all-pubs/england/hertfordshire/the-moon-under-water-watford"
,"115–117 High Street","Rickmansworth","Hertfordshire",0,"45a1e616-2e4f-4020-93cb-6081c95e5dc4",false,false,51.6388702392578,-0.469790011644363,"The Pennsylvanian","WD3 1AN",false,false,"177","","01923 720348","/pubs/all-pubs/england/hertfordshire/the-pennsylvanian-rickmansworth"
,"Ground Floor Units D1/D2, Block D, Riverside Wharf, Riverside","Bishop’s Stortford","Hertfordshire",0,"e31f8397-c7ec-479e-8428-5ecdd934cdd5",false,false,51.8691673278809,0.162103995680809,"The Port Jackson","CM23 3GN",false,false,"6391","","01279 714460","/pubs/all-pubs/england/hertfordshire/the-port-jackson-bishops-stortford"
,"1 The Wash","Hertford","Hertfordshire",0,"0b869940-1461-4f2c-b98e-d3ebda22e482",false,false,51.796028137207,-0.0791419968008995,"The Six Templars","SG14 1PS",false,false,"1641","","01992 517430","/pubs/all-pubs/england/hertfordshire/the-six-templars-hertford"
,"33 High Street","Stevenage","Hertfordshire",0,"b8e50341-758e-4a7a-934e-1e414954358a",false,false,51.9120750427246,-0.208075001835823,"The Standing Order","SG1 3AU",false,false,"1031","","01438 316972","/pubs/all-pubs/england/hertfordshire/the-standing-order-stevenage"
,"105 High Street","Hoddesdon","Hertfordshire",0,"a61f1f45-eae6-4c4e-a9bc-cf346c8e7860",false,false,51.7616119384766,-0.0117899999022484,"The Star","EN11 8TN",false,false,"7244","","01992 448477","/pubs/all-pubs/england/hertfordshire/the-star-hoddesdon"
,"18–20 Leys Avenue","Letchworth","Hertfordshire",0,"d49e3969-6dc3-4040-a503-0717454f4668",false,false,51.979248046875,-0.226942002773285,"The Three Magnets","SG6 3EW",false,false,"289","","01462 681093","/pubs/all-pubs/england/hertfordshire/the-three-magnets-letchworth"
,"St Peters Street","St Albans","Hertfordshire",0,"0a3c5913-9d92-4fd4-9bec-6acd064d564e",false,false,51.7526206970215,-0.337334990501404,"Waterend Barn","AL1 3LE",false,false,"5152","","01727 814100","/pubs/all-pubs/england/hertfordshire/waterend-barn-st-albans"
,"21–23 Cornfield Road","Eastbourne","East Sussex",0,"94c13345-dc62-4554-b8e2-3770b53d9314",false,false,50.7676010131836,0.284554988145828,"Cornfield Garage","BN21 4QD",false,false,"280","","01323 419670","/pubs/all-pubs/england/east-sussex/cornfield-garage-eastbourne"
,"20–22a West Street","Brighton","East Sussex",0,"20c9acf5-15c8-4cd1-8d2c-d007fa679db5",false,false,50.822811126709,-0.144418001174927,"The Bright Helm","BN1 2RE",false,false,"896","","01273 224690","/pubs/all-pubs/england/east-sussex/the-bright-helm-brighton"
,"98–101 George Street","Hove","East Sussex",0,"0d494b2b-aad0-4b88-a692-c08521d992fd",false,false,50.8285865783691,-0.174064993858337,"The Cliftonville Inn","BN3 3YE",false,false,"218","","01273 726969","/pubs/all-pubs/england/east-sussex/the-cliftonville-inn-hove"
,"Beacon Road","Crowborough","East Sussex",0,"f2cf866a-974c-44c8-bd03-787765e4c0a6",false,false,51.0605049133301,0.161606997251511,"The Crowborough Cross","TN6 1AF",false,false,"7264","","01892 662555","/pubs/all-pubs/england/east-sussex/the-crowborough-cross-crowborough"
,"3 George Street","Hailsham","East Sussex",0,"f99d2f44-c8a9-4c6e-a5ab-866774276be0",false,false,50.8621215820313,0.259595990180969,"The George Hotel","BN27 1AD",false,false,"6284","","01323 445120","/pubs/all-pubs/england/east-sussex/the-george-hotel-hailsham"
,"29–31 Havelock Road","Hastings","East Sussex",0,"52052daf-e4b6-4732-9bf1-2d71d5f225d5",false,false,50.8558578491211,0.579626023769379,"The John Logie Baird","TN34 1BE",false,false,"1806","","01424 448110","/pubs/all-pubs/england/east-sussex/the-john-logie-baird-hastings"
,"46 Terminus Road","Eastbourne","East Sussex",0,"b755221a-9ed4-48cc-aa1d-5c521f8a2773",false,false,50.7688331604004,0.281549006700516,"The London & County","BN21 3LX",false,false,"6189","","01323 746310","/pubs/all-pubs/england/east-sussex/the-london--county-eastbourne"
,"The Picture Playhouse						","Bexhill-on-Sea","East Sussex",0,"755a0ab4-6734-43d0-81c8-c2a0742cdb21",false,false,50.8402328491211,0.470906406641006,"The Picture Playhouse","TN40 1DY",false,false,"7139","","01424 819500","/pubs/all-pubs/england/east-sussex/the-picture-playhouse-bexhill-on-sea"
,"155–158 North Street","Brighton","East Sussex",0,"7cb14fd1-7885-4de1-819c-89112fbb3327",false,false,50.8229866027832,-0.14044600725174,"The Post & Telegraph","BN1 1EA",false,false,"6221","","01273 827540","/pubs/all-pubs/england/east-sussex/the-post--telegraph-brighton"
,"Brighton Marina Village","Brighton","East Sussex",0,"1f78b90c-c8e5-46d6-8b63-c6098a1b7db5",false,false,50.8121490478516,-0.105217002332211,"The West Quay","BN2 5UT",false,false,"5340","","01273 645780","/pubs/all-pubs/england/east-sussex/the-west-quay-brighton"
,"Load Street","Bewdley","Worcestershire",0,"26934c48-d0f3-4bde-b548-6cb0f4335128",false,true,52.3757705688477,-2.31542801856995,"George Hotel","DY12 2AW",false,false,,"","01299 406970","/hotels/england/worcestershire/george-hotel"
,"Load Street","Bewdley","Worcestershire",0,"37cfaf74-960a-41ed-b6a2-42e75260059c",false,false,52.3757705688477,-2.31542801856995,"George Hotel","DY12 2AW",false,false,"5504","","01299 406970","/pubs/all-pubs/england/worcestershire/george-hotel-bewdley"
,"20 High Street","Bromsgrove","Worcestershire",0,"15c0988d-8623-4727-a684-6c358c650870",false,false,52.3339195251465,-2.06178689002991,"Golden Cross Hotel","B61 8HH",false,false,"176","","01527 870005","/pubs/all-pubs/england/worcestershire/golden-cross-hotel-bromsgrove"
,"Crown Passage","Worcester","Worcestershire",0,"b0372e92-79d2-4658-ae43-c9863ec80a64",false,true,52.1928634643555,-2.2221200466156,"The Crown","WR1 3LL",false,false,,"","01905 617578","/hotels/england/worcestershire/the-crown"
,"Crown Passage","Worcester","Worcestershire",0,"d132128d-12b8-4243-9e32-a650e88230c1",false,false,52.1928634643555,-2.2221200466156,"The Crown","WR1 3LL",false,false,"4086","","01905 721870","/pubs/all-pubs/england/worcestershire/the-crown-worcester"
,"14 Worcester Road","Great Malvern","Worcestershire",0,"30793a19-7992-46c3-abf9-5104c5ab04e6",false,true,52.1124801635742,-2.33003711700439,"The Foley Arms Hotel","WR14 4QS",false,false,,"","01684 580350","/hotels/england/worcestershire/the-foley-arms-hotel"
,"14 Worcester Road","Great Malvern","Worcestershire",0,"df35207b-da3f-4946-83ea-2c27df39f986",false,false,52.1124801635742,-2.33003711700439,"The Foley Arms Hotel","WR14 4QS",false,false,"5562","","01684 580350","/pubs/all-pubs/england/worcestershire/the-foley-arms-hotel-great-malvern"
,"66 High Street","Evesham","Worcestershire",0,"54e4ee29-974f-4af3-bd6d-3bd5b2f89bab",false,false,52.0942726135254,-1.94645595550537,"The Old Swanne Inne","WR11 4HG",false,false,"953","","01386 442650","/pubs/all-pubs/england/worcestershire/the-old-swanne-inne-evesham"
,"18 Foregate Street","Worcester","Worcestershire",0,"b757ee63-33bc-4033-977b-c6ab31f82f51",false,false,52.195499420166,-2.22187495231628,"The Postal Order","WR1 1DN",false,false,"293","","01905 22373","/pubs/all-pubs/england/worcestershire/the-postal-order-worcester"
,"Unit 4, Alcester Street","Redditch","Worcestershire",0,"a8ae20bb-0080-460e-b243-4a6e5b397576",false,false,52.3058967590332,-1.93861103057861,"The Rising Sun","B98 8AE",false,false,"407","","01527 62452","/pubs/all-pubs/england/worcestershire/the-rising-sun-redditch"
,"The Old Cinema, Unicorn Hill","Redditch","Worcestershire",0,"0f63e401-129e-408e-a1ae-c6eb1fc1fab8",false,false,52.3070411682129,-1.94318103790283,"The Royal Enfield","B97 4QR",false,false,"6404","","01527 590970","/pubs/all-pubs/england/worcestershire/the-royal-enfield-redditch"
,"38 South Street","Exeter","Devon",0,"7cfc4bbe-5622-4fda-80c8-bd3f0e7d8fe9",false,false,50.7205657958984,-3.5300440788269,"George’s Meeting House","EX1 1ED",false,false,"1040","","01392 454250","/pubs/all-pubs/england/devon/georges-meeting-house-exeter"
,"Wilder Road","Ilfracombe","Devon",0,"688110af-2f0f-4c80-958c-a63d41335808",false,false,51.2101936340332,-4.11922597885132,"The Admiral Collingwood","EX34 9AP",false,false,"5556","","01271 862373","/pubs/all-pubs/england/devon/the-admiral-collingwood-ilfracombe"
,"1 Wolseley Road","Plymouth","Devon",0,"25dba11a-5e98-425e-baec-49b14be41f1c",false,false,50.3856315612793,-4.15729999542236,"The Britannia Inn","PL2 3AA",false,false,"1171","","01752 607596","/pubs/all-pubs/england/devon/the-britannia-inn-plymouth"
,"81–82 Fore Street","Exeter","Devon",0,"4ac88941-2a5c-4d41-9aaf-7e6603e8d0ae",false,false,50.7222023010254,-3.53290009498596,"The Chevalier Inn","EX4 3HR",false,false,"6217","","01392 457760","/pubs/all-pubs/england/devon/the-chevalier-inn-exeter"
,"37 High Street","Crediton","Devon",0,"ee5e5f84-c3a8-4052-bed8-68d969603436",false,false,50.7906875610352,-3.66086292266846,"The General Sir Redvers Buller","EX17 3JP",false,false,"2925","","01363 774381","/pubs/all-pubs/england/devon/the-general-sir-redvers-buller-crediton"
,"57–59 Southside Street","Plymouth","Devon",0,"99ed58b3-8cc7-4cfd-a2aa-b8346ce22054",false,false,50.3675193786621,-4.13751602172852,"The Gog and Magog","PL1 2LA",false,false,"2661","","01752 264160","/pubs/all-pubs/england/devon/the-gog-and-magog-plymouth"
,"Lower Ground Floor, Winter Garden","Torquay","Devon",0,"85b1c0f7-0a3c-4826-9a82-864d27897c57",false,false,50.4621467590332,-3.52552509307861,"The Green Ginger","TQ2 5DZ",false,false,"6011","","01803 217960","/pubs/all-pubs/england/devon/the-green-ginger-torquay"
,"New North Road","Exeter","Devon",0,"915a1f6f-bda1-4892-b651-e42969e89fe0",false,false,50.7302055358887,-3.53966903686523,"The Imperial","EX4 4AH",false,false,"253","","01392 434050","/pubs/all-pubs/england/devon/the-imperial-exeter"
,"9–15 Station Road","Teignmouth","Devon",0,"f0983736-db8d-4686-92d3-b78244667cd2",false,false,50.5470657348633,-3.49448990821838,"The Jolie Brise","TQ14 8PE",false,false,"7309","","01626 778853","/pubs/all-pubs/england/devon/the-jolie-brise-teignmouth"
,"61–63 Mutley Plain","Plymouth","Devon",0,"ecb41e0f-86b8-4fa0-8b83-67863b5bd39f",false,false,50.382396697998,-4.13373994827271,"The Mannamead","PL4 6JH",false,false,"2365","","01752 825610","/pubs/all-pubs/england/devon/the-mannamead-plymouth"
,"33–34 Boutport Street","Barnstaple","Devon",0,"5d2521a3-94fa-4a35-bdb8-c38af7c53cc3",false,false,51.0807609558105,-4.05811977386475,"The Panniers","EX31 1RX",false,false,"1155","","01271 329720","/pubs/all-pubs/england/devon/the-panniers-barnstaple"
,"2–2a The Parade","Exmouth","Devon",0,"3ec699f4-b477-46c0-a8d5-676fb092b3b6",false,false,50.6203308105469,-3.4137020111084,"The Powder Monkey","EX8 1RJ",false,false,"259","","01395 280090","/pubs/all-pubs/england/devon/the-powder-monkey-exmouth"
,"79–80 West Street","Tavistock","Devon",0,"69d2c119-dd9d-4d7f-bd51-3e43d6bd0369",false,true,50.5496826171875,-4.14677381515503,"The Queen's Head Hotel","PL19 8AQ",false,false,,"","01822 612455","/hotels/england/devon/the-queens-head"
,"79–80 West Street","Tavistock","Devon",0,"cbad9b4a-14f6-49f3-b4d6-e160166f65eb",false,false,50.5496826171875,-4.14677381515503,"The Queen's Head Hotel","PL19 8AQ",false,false,"7251","","01822 612455","/pubs/all-pubs/england/devon/the-queens-head-hotel-tavistock"
,"34–42 Queen Street","Newton Abbot","Devon",0,"d865df4a-aac1-4646-b953-720bec7f17a0",false,false,50.5307121276855,-3.60780596733093,"The Richard Hopkins","TQ12 2EW",false,false,"2700","","01626 323930","/pubs/all-pubs/england/devon/the-richard-hopkins-newton-abbot"
,"9–10 Bridgeland Street","Bideford","Devon",0,"71466273-d266-426a-aa21-047395e35de5",false,false,51.0199012756348,-4.2058539390564,"The Rose Salterne","EX39 2PZ",false,false,"6449","","01237 426110","/pubs/all-pubs/england/devon/the-rose-salterne-bideford"
,"121 Cowick Street","Exeter","Devon",0,"eb3cc692-485e-4cc3-a17b-c52c0d920cd2",false,false,50.7153396606445,-3.54411697387695,"The Sawyer’s Arms","EX4 1JD",false,false,"6035","","01392 269520","/pubs/all-pubs/england/devon/the-sawyers-arms-exeter"
,"95–99 Ridgeway","Plympton","Devon",0,"ce97e4b7-cc57-4246-a422-72770a0e06a2",false,false,50.3877983093262,-4.05173110961914,"The Stannary Court","PL7 2AA",false,false,"6850","","01752 283280","/pubs/all-pubs/england/devon/the-stannary-court-plympton"
,"33 New Street","Honiton","Devon",0,"bec06bf4-5831-413d-9021-dabbe917bcb6",false,false,50.7984313964844,-3.18808603286743,"The Star Inn","EX14 1BS",false,false,"6790","","01404 541940","/pubs/all-pubs/england/devon/the-star-inn-honiton"
,"46–52 Torbay Road","Paignton","Devon",0,"5896dd9a-aac4-4043-807c-4677cf99bdc2",false,false,50.4351615905762,-3.5615029335022,"The Talk of the Town","TQ4 6AL",false,false,"5879","","01803 668070","/pubs/all-pubs/england/devon/the-talk-of-the-town-paignton"
,"19 Union Street","Plymouth","Devon",0,"76195c06-a063-497f-a8f4-acb4a040f280",false,false,50.3697090148926,-4.14801406860352,"The Union Rooms","PL1 2SU",false,false,"662","","01752 254520","/pubs/all-pubs/england/devon/the-union-rooms-plymouth"
,"5 Bolton Street","Brixham","Devon",0,"e759fe03-7639-4355-960e-587e3c6f37a5",false,false,50.3937034606934,-3.51598191261292,"The Vigilance","TQ5 9DE",false,false,"688","","01803 850489","/pubs/all-pubs/england/devon/the-vigilance-brixham"
,"7 The Strand","Barnstaple","Devon",0,"48e2f89f-3e84-4dba-8235-0fee70421b3d",false,false,51.0788459777832,-4.06027984619141,"The Water Gate","EX31 1EU",false,false,"5978","","01271 335410","/pubs/all-pubs/england/devon/the-water-gate-barnstaple"
,"8 Bridge Street","Tiverton","Devon",0,"cabfc6ea-8547-4ab4-871e-04cb88fe4e02",false,false,50.9029388427734,-3.49081802368164,"The White Ball Inn","EX16 5LY",false,false,"2999","","01884 251525","/pubs/all-pubs/england/devon/the-white-ball-inn-tiverton"
,"The White Hart Hotel","Okehampton","Devon",0,"c7371b97-4a64-408d-b86e-c43e359b0c8a",false,true,50.7392807006836,-4.00230407714844,"The White Hart Hotel","EX20 1HD",false,false,,"","01837 658533","/hotels/england/devon/the-white-hart"
,"The White Hart Hotel				","Okehampton","Devon",0,"330e8507-7c4d-413c-b3d3-83fdccca8d14",false,false,50.7391471862793,-4.00316762924194,"The White Hart Hotel","EX20 1HD",false,false,"7280","","01837 658533","/pubs/all-pubs/england/devon/the-white-hart-hotel-okehampton"
,"Tuesday Market Place","King’s Lynn","Norfolk",0,"13132bb9-6af2-46d2-a015-42eac8f5e371",false,true,52.7557792663574,0.39369198679924,"Globe Hotel","PE30 1EZ",false,false,,"","01553 668000","/hotels/england/norfolk/globe-hotel"
,"Tuesday Market Place","King’s Lynn","Norfolk",0,"97f43da2-305c-4aa8-b354-e43758f4f08d",false,false,52.7557792663574,0.39369198679924,"Globe Hotel","PE30 1EZ",false,false,"2520","","01553 668000","/pubs/all-pubs/england/norfolk/globe-hotel-kings-lynn"
,"5 Orford Hill","Norwich","Norfolk",0,"0363f3e6-e59a-43eb-97aa-1936a1951f47",false,false,52.6273498535156,1.29547703266144,"The Bell Hotel","NR1 3QB",false,false,"136","","01603 630017","/pubs/all-pubs/england/norfolk/the-bell-hotel-norwich"
,"11–13 Wensum Street","Norwich","Norfolk",0,"864b1df6-0951-4300-bc5a-74969aa19bab",false,false,52.6322975158691,1.29782199859619,"The Glass House","NR3 1LA",false,false,"664","","01603 877650","/pubs/all-pubs/england/norfolk/the-glass-house-norwich"
,"30 Bridge Street","Fakenham","Norfolk",0,"60887655-93b5-402d-8c9d-62816eb477e3",false,false,52.8286666870117,0.848524987697601,"The Limes","NR21 9AZ",false,false,"6970","","01328 850050","/pubs/all-pubs/england/norfolk/the-limes-fakenham"
,"Unit 6, Riverside Development","Norwich","Norfolk",0,"d410a12a-9853-4ad2-a194-9405f3ab0f91",false,false,52.6250495910645,1.30360496044159,"The Queen of Iceni","NR1 1ED",false,false,"1719","","01603 877690","/pubs/all-pubs/england/norfolk/the-queen-of-iceni-norwich"
,"Market Place","Thetford","Norfolk",0,"cf356399-6677-44ce-8394-addce11bba8a",false,false,52.4134292602539,0.750488996505737,"The Red Lion","IP24 2AL",false,false,"6620","","01842 757210","/pubs/all-pubs/england/norfolk/the-red-lion-thetford"
,"Church Street","Dereham","Norfolk",0,"5aa76cc5-9bdd-43a5-9ffc-c6dd1cc8c7e9",false,true,52.6809844970703,0.939354002475739,"The Romany Rye","NR19 1DL",false,false,,"","01362 654160","/hotels/england/norfolk/the-romany-rye"
,"Church Street","Dereham","Norfolk",0,"f733597b-0b95-4824-a613-b375a18eab1c",false,false,52.6809844970703,0.939354002475739,"The Romany Rye","NR19 1DL",false,false,"5937","","01362 654160","/pubs/all-pubs/england/norfolk/the-romany-rye-dereham"
,"The Troll Cart","Great Yarmouth","Norfolk",0,"64ecf3d9-3e8e-44d9-85d2-a3d564a2fc53",false,true,52.6072158813477,1.72944605350494,"The Troll Cart","NR30 2AF",false,false,,"","01493 332932","/hotels/england/norfolk/the-troll-cart"
,"7–9 Regent Road","Great Yarmouth","Norfolk",0,"7576c265-df19-4b36-9cf4-195fb495b3f2",false,false,52.6072158813477,1.72944605350494,"The Troll Cart","NR30 2AF",false,false,"210","","01493 332932","/pubs/all-pubs/england/norfolk/the-troll-cart-great-yarmouth"
,"58–64 Bridge Street","Downham Market","Norfolk",0,"f49699b4-829a-4503-81c2-35a4366c468c",false,false,52.6028709411621,0.376051098108292,"The Whalebone","PE38 9DJ",false,false,"7320","","01366 381600","/pubs/all-pubs/england/norfolk/the-whalebone-downham-market"
,"Boundary Road","Norwich","Norfolk",0,"f73f7f59-5e56-4784-87c2-80de604664a9",false,false,52.6543197631836,1.26856303215027,"The Whiffler","NR6 5JB",false,false,"915","","01603 424042","/pubs/all-pubs/england/norfolk/the-whiffler-norwich"
,"176 High Street","Great Yarmouth","Norfolk",0,"944754a4-3aec-4491-a29c-1ed5282fae06",false,false,52.580394744873,1.72830045223236,"The William Adams","NR31 6RG",false,false,"7294","","01493 600295","/pubs/all-pubs/england/norfolk/the-william-adams-gorleston-on-sea"
,"68–69 North Street","Sudbury","Suffolk",0,"54b5cc43-7f6c-42a4-84fd-246c50af65f3",false,false,52.0407752990723,0.730153977870941,"Grover & Allen","CO10 1RF",false,false,"5285","","01787 467660","/pubs/all-pubs/england/suffolk/grover--allen-sudbury"
,"Abbeygate Street","Bury St Edmunds","Suffolk",0,"9a26b210-73fa-48df-af4c-8abdcf67401b",false,false,52.2447242736816,0.712275981903076,"The Corn Exchange","IP33 1UL",false,false,"6382","","01284 727300","/pubs/all-pubs/england/suffolk/the-corn-exchange-bury-st-edmunds"
,"51 Crown Street","Ipswich","Suffolk",0,"83c9eda5-493b-4e41-a150-de45728cf781",false,false,52.0595207214355,1.15464103221893,"The Cricketers","IP1 3JA",false,false,"288","","01473 225910","/pubs/all-pubs/england/suffolk/the-cricketers-ipswich"
,"5–6 Peas Hill","Haverhill","Suffolk",0,"4d738984-800f-447b-9afc-b67544b9a059",false,false,52.0827140808105,0.437527000904083,"The Drabbet Smock","CB9 8BB",false,false,"1058","","01440 713070","/pubs/all-pubs/england/suffolk/the-drabbet-smock-haverhill"
,"44 High Street","Newmarket","Suffolk",0,"02694c89-43eb-4eca-8d7c-e40460f4d013",false,false,52.2447776794434,0.407389998435974,"The Golden Lion","CB8 8LB",false,false,"1311","","01638 672040","/pubs/all-pubs/england/suffolk/the-golden-lion-newmarket"
,"18–32 Station Square","Lowestoft","Suffolk",0,"e253db7a-9d18-4be2-8ccb-e6ed3efbd37a",false,false,52.474292755127,1.75098502635956,"The Joseph Conrad","NR32 1BA",false,false,"6251","","01502 533270","/pubs/all-pubs/england/suffolk/the-joseph-conrad-lowestoft"
,"4–6 New Market","Beccles","Suffolk",0,"0a598b12-3e5a-4af7-a5bc-850481d529f1",false,true,52.4575576782227,1.56315195560455,"The Kings Head Hotel","NR34 9HA",false,false,,"","01502 718730","/hotels/england/suffolk/the-kings-head-hotel"
,"4–6 New Market","Beccles","Suffolk",0,"cb96a4b2-7f31-42ca-bdaf-670715ee4d86",false,false,52.4575576782227,1.56315195560455,"The Kings Head Hotel","NR34 9HA",false,false,"6377","","01502 718730","/pubs/all-pubs/england/suffolk/the-kings-head-hotel-beccles"
,"101 Ipswich Street","Stowmarket","Suffolk",0,"dad24aba-3fdf-4662-8ae9-88db8e1b045f",false,false,52.1854934692383,0.999027013778687,"The Willow Tree","IP14 1BB",false,false,"5478","","01449 618090","/pubs/all-pubs/england/suffolk/the-willow-tree-stowmarket"
,"Anglesey Lodge, Anglesey Street","Hednesford","Staffordshire",0,"167ea9b0-72af-47b9-9221-f740fbe5c6dd",false,false,52.7091979980469,-2.00037503242493,"The Hedgeford Lodge","WS12 1DL",false,false,"7136","","01543 878370","/pubs/all-pubs/england/staffordshire/hedgeford-lodge-hednesford"
,"16–18 Tamworth Street","Lichfield","Staffordshire",0,"e49f6ef7-4786-47ae-8943-a0582b9b2e82",false,false,52.6837348937988,-1.82594501972198,"The Acorn Inn","WS13 6JJ",false,false,"441","","01543 263400","/pubs/all-pubs/england/staffordshire/the-acorn-inn-lichfield"
,"37 Ironmarket","Newcastle-under-Lyme","Staffordshire",0,"78786384-2ccc-4382-9a79-8c526c1137ee",false,false,53.0121917724609,-2.22534394264221,"The Arnold Machin","ST5 1PB",false,false,"1964","","01782 557840","/pubs/all-pubs/england/staffordshire/the-arnold-machin-newcastleunderlyme"
,"8 Bolebridge Street","Tamworth","Staffordshire",0,"4fac5e16-54d8-4a47-9587-11251aeae35e",false,false,52.6331405639648,-1.69154405593872,"The Bole Bridge","B79 7PA",false,false,"1448","","01827 317510","/pubs/all-pubs/england/staffordshire/the-bole-bridge-tamworth"
,"68 High Street","Biddulph","Staffordshire",0,"513475ce-b655-49ac-bf99-f4cef85a777c",false,false,53.1157150268555,-2.17633104324341,"The Bradley Green","ST8 6AS",false,false,"1898","","01782 375500","/pubs/all-pubs/england/staffordshire/the-bradley-green-biddulph"
,"25–27 Gaolgate Street","Stafford","Staffordshire",0,"9984d7f9-b740-4765-8df0-4a6748d55c06",false,false,52.8087043762207,-2.11829805374146,"The Butler’s Bell","ST16 2NT",false,false,"6808","","01785 785290","/pubs/all-pubs/england/staffordshire/the-butlers-bell-stafford"
,"2 St Edward Street","Leek","Staffordshire",0,"70ce2f67-3eb3-42db-94c6-168f8c9a8602",false,false,53.1065330505371,-2.02695989608765,"The Green Dragon","ST13 5DS",false,false,"7029","","01538 392540","/pubs/all-pubs/england/staffordshire/the-green-dragon-leek"
,"79 Market Place","Cannock","Staffordshire",0,"4b8314f2-1dad-4bf4-9574-d4fc2f205098",false,false,52.6894721984863,-2.03221893310547,"The Linford Arms","WS11 1BN",false,false,"1328","","01543 469360","/pubs/all-pubs/england/staffordshire/the-linford-arms-cannock"
,"154 High Street","Burton upon Trent","Staffordshire",0,"b1b1e57d-3cb3-4eb9-a17f-808af08ffb89",false,false,52.8029937744141,-1.62950098514557,"The Lord Burton","DE14 1JE",false,false,"412","","01283 517587","/pubs/all-pubs/england/staffordshire/the-lord-burton-burton-upon-trent"
,"Market Place","Uttoxeter","Staffordshire",0,"caeea943-9eab-4ea0-a709-aff18bbfc94d",false,false,52.8979606628418,-1.86326599121094,"The Old Swan","ST14 8HN",false,false,"5367","","01889 598650","/pubs/all-pubs/england/staffordshire/the-old-swan-uttoxeter"
,"Bridge Street","Stafford","Staffordshire",0,"f1589af5-b1b2-41f1-b633-284fb9ac0860",false,false,52.8044395446777,-2.11591506004333,"The Picture House","ST16 2HL",false,false,"257","","01785 222941","/pubs/all-pubs/england/staffordshire/the-picture-house-stafford"
,"Horsefair","Rugeley","Staffordshire",0,"b4faef8b-d963-41d8-b243-b9abef1dc4d8",false,false,52.757438659668,-1.93489003181458,"The Plaza","WS15 2EH",false,false,"671","","01889 586831","/pubs/all-pubs/england/staffordshire/the-plaza-rugeley"
,"1 Granville Square","Stone","Staffordshire",0,"9f04e4b9-a031-40a7-9d2a-066c9a62ae24",false,false,52.9034881591797,-2.14855408668518,"The Poste of Stone","ST15 8AB",false,false,"2060","","01785 827920","/pubs/all-pubs/england/staffordshire/the-poste-of-stone-stone"
,"The Tontine","Hanley","Staffordshire",0,"4f85259c-e399-41c0-9003-93aa54c9e4c0",false,false,53.025318145752,-2.17416310310364,"The Reginald Mitchell","ST1 1NQ",false,false,"199","","01782 281082","/pubs/all-pubs/england/staffordshire/the-reginald-mitchell-hanley"
,"53 High Street","Cheadle","Staffordshire",0,"1855cf2e-d8f4-4239-8a8a-06419da10eeb",false,false,52.9867820739746,-1.98975300788879,"The Wheatsheaf","ST10 1AR",false,false,"6226","","01538 758310","/pubs/all-pubs/england/staffordshire/the-wheatsheaf-cheadle"
,"84–92 Church Street","Stoke-on-Trent","Staffordshire",0,"6fc1bf62-f0cd-41b9-9f76-eba38aceb9b3",false,false,53.0040664672852,-2.18528294563293,"The Wheatsheaf","ST4 1BU",false,false,"755","","01782 747462","/pubs/all-pubs/england/staffordshire/the-wheatsheaf-stokeontrent"
,"52–54 Market Street","Hoylake","Merseyside",0,"9f0fc4dc-6d91-4278-8c70-cd419d0e4fec",false,false,53.3924751281738,-3.17706394195557,"Hoylake Lights","CH47 3BB",false,false,"541","","0151 632 1209","/pubs/all-pubs/england/merseyside/hoylake-lights-hoylake"
,"Archway Road","Liverpool","Merseyside",0,"e1aaefea-e2a1-42ee-a071-b7637c4f211d",false,false,53.4133758544922,-2.84005904197693,"The Barker’s Brewery","L36 9UJ",false,false,"6535","","0151 482 4500","/pubs/all-pubs/england/merseyside/the-barkers-brewery-liverpool"
,"39–47 Argyle Street","Birkenhead","Merseyside",0,"ff7067cc-9b41-4d4c-9ded-201c7296212d",false,false,53.3923835754395,-3.0180881023407,"The Brass Balance","CH41 6AB",false,false,"2071","","0151 650 8950","/pubs/all-pubs/england/merseyside/the-brass-balance-birkenhead"
,"The Captain Alexander","Liverpool","Merseyside",0,"fcd78133-569f-49d6-b4d5-d56bf2f61ff5",false,false,53.4048614501953,-2.99142146110535,"The Captain Alexander","L2 7NX",false,false,"6826","","0151 227 4197","/pubs/all-pubs/england/merseyside/the-captain-alexander-liverpool"
,"179 Queens Drive","Liverpool","Merseyside",0,"af575eaf-cba2-4bc0-afb6-16c73e783477",false,false,53.3968200683594,-2.89665603637695,"The Childwall Fiveways Hotel","L15 6XS",false,false,"6235","","0151 738 2100","/pubs/all-pubs/england/merseyside/the-childwall-fiveways-hotel-liverpool"
,"48 Wallasey Road","Wallasey","Merseyside",0,"63df3047-cad8-4759-8b7a-9ff97eed31d2",false,false,53.4197273254395,-3.04712510108948,"The Clairville","CH45 4NW",false,false,"4259","","0151 346 8960","/pubs/all-pubs/england/merseyside/the-clairville-wallasey"
,"44 Grange Road","West Kirby","Merseyside",0,"0c2a9530-fb26-4394-9637-3defb43e84be",false,false,53.3728179931641,-3.18244695663452,"The Dee Hotel","CH48 4EF",false,false,"2375","","0151 929 6300","/pubs/all-pubs/england/merseyside/the-dee-hotel-west-kirby"
,"St John’s Way","Liverpool","Merseyside",0,"bdc6f9f3-4813-4ee6-aaa0-4a3361109873",false,false,53.4066429138184,-2.98004794120789,"The Fall Well","L1 1LS",false,false,"2517","","0151 705 2050","/pubs/all-pubs/england/merseyside/the-fall-well-liverpool"
,"38 Eastway","Liverpool","Merseyside",0,"52961246-8c58-49ea-9425-9032e996abd3",false,false,53.515308380127,-2.93674397468567,"The Frank Hornby","L31 6BR",false,false,"6910","","0151 520 4010","/pubs/all-pubs/england/merseyside/the-frank-hornby-liverpool"
,"5 Market Street","St Helens","Merseyside",0,"940ae890-b2e5-441c-9bec-989fac681049",false,false,53.4513359069824,-2.73586106300354,"The Glass House","WA10 1NE",false,false,"2026","","01744 762310","/pubs/all-pubs/england/merseyside/the-glass-house-st-helens"
,"70–72 New Chester Road","New Ferry","Merseyside",0,"02b62201-47e8-4c9d-a7f7-2d518ec46fe1",false,false,53.3613357543945,-2.99783492088318,"The John Masefield","CH62 5AD",false,false,"5531","","0151 644 4250","/pubs/all-pubs/england/merseyside/the-john-masefield-new-ferry"
,"41 Three Tuns Lane","Formby","Merseyside",0,"9017c514-9b8a-4e28-a4f5-ae619fb491ca",false,false,53.5562629699707,-3.05973696708679,"The Lifeboat","L37 4AQ",false,false,"7216","","01704 830839","/pubs/all-pubs/england/merseyside/the-lifeboat-formby"
,"Fleet Street/Concert Square","Liverpool","Merseyside",0,"2f937d71-ba98-4710-9408-359b9a61cf87",false,false,53.4029693603516,-2.9802770614624,"The Lime Kiln","L1 4NR",false,false,"2011","","0151 702 6810","/pubs/all-pubs/england/merseyside/the-lime-kiln-liverpool"
,"3–5 Union Terrace","New Brighton","Merseyside",0,"92ede694-01b9-4549-876b-de53133a017c",false,false,53.4399223327637,-3.04410004615784,"The Master Mariner","CH45 2JT",false,false,"6641","","0151 346 8950","/pubs/all-pubs/england/merseyside/the-master-mariner-new-brighton"
,"239–241 Hoylake Road","Moreton","Merseyside",0,"b8132d42-4a85-4693-a6ec-10ed84badf27",false,false,53.4007720947266,-3.11331605911255,"The Mockbeggar Hall","CH46 0SL",false,false,"1200","","0151 678 5659","/pubs/all-pubs/england/merseyside/the-mockbeggar-hall-moreton"
,"694 Queen’s Drive","Stoneycroft","Merseyside",0,"b5898d18-0c88-4804-b82f-1e573b05f296",false,false,53.4151306152344,-2.90567803382874,"The Navigator","L13 5UH",false,false,"2936","","0151 220 2713","/pubs/all-pubs/england/merseyside/the-navigator-stoneycroft"
,"3 Legh Street","Newton-le-Willows","Merseyside",0,"50312331-0d95-4f00-b37b-1ee42b1880ee",false,false,53.4522552490234,-2.64398908615112,"The Nine Arches","WA12 9NE",false,false,"7293","","01925 224409","/pubs/all-pubs/england/merseyside/the-nine-arches-newton-le-willows"
,"7 Lime Street","Liverpool","Merseyside",0,"f55156df-b8fc-4f85-b7c7-54a221bf0e55",false,false,53.4072608947754,-2.97700309753418,"The North Western","L1 1RJ",false,false,"6486","","01517 096825","/pubs/all-pubs/england/merseyside/the-north-western-liverpool"
,"47–49 South Road","Liverpool","Merseyside",0,"3c146811-3bb2-4a28-a4d9-160ce1ab9d16",false,false,53.4741821289063,-3.02730894088745,"The Queen’s Picture House","L22 5PE",false,false,"6068","","0151 949 2070","/pubs/all-pubs/england/merseyside/the-queens-picture-house-liverpool"
,"72–74 Walton Vale","Liverpool","Merseyside",0,"380ecf49-adbb-4b89-90b3-1789044513d2",false,false,53.463794708252,-2.9586660861969,"The Raven","L9 2BU",false,false,"403","","0151 524 1255","/pubs/all-pubs/england/merseyside/the-raven-liverpool"
,"Units 1 & 2, Charlotte Row","Liverpool","Merseyside",0,"5723c761-7bef-4391-b656-7440fda664e0",false,false,53.406078338623,-2.97993206977844,"The Richard John Blackler","L1 1HU",false,false,"198","","0151 709 4802","/pubs/all-pubs/england/merseyside/the-richard-john-blackler-liverpool"
,"Water Street/Chalon Way","St Helens","Merseyside",0,"ad7a08ed-2f17-4a5a-a74b-63f0a49b5894",false,false,53.4518051147461,-2.73970699310303,"The Running Horses","WA10 1PY",false,false,"6263","","01744 743400","/pubs/all-pubs/england/merseyside/the-running-horses-st-helens"
,"93–97 Lord Street","Southport","Merseyside",0,"397b4a48-daa3-46d8-89b9-ace33cd5d77f",false,false,53.6458625793457,-3.01048803329468,"The Sir Henry Segrave","PR8 1RH",false,false,"203","","01704 530217","/pubs/all-pubs/england/merseyside/the-sir-henry-segrave-southport"
,"177–187 Walton Road","Liverpool","Merseyside",0,"9e904e21-0306-4cc4-8ff1-688959a3bf51",false,false,53.435863494873,-2.97267007827759,"The Thomas Frost","L4 4AJ",false,false,"2372","","0151 207 8210","/pubs/all-pubs/england/merseyside/the-thomas-frost-liverpool"
,"60–62 Eccleston Street","Prescot","Merseyside",0,"e264232e-9dff-46a8-bff1-5f64708aaf06",false,false,53.4296264648438,-2.80225610733032,"The Watch Maker","L34 5QL",false,false,"6103","","0151 432 7030","/pubs/all-pubs/england/merseyside/the-watch-maker-prescot"
,"7 Whitechapel","Liverpool","Merseyside",0,"67407e24-2931-4182-a98f-fa332f7ed4e5",false,false,53.4057769775391,-2.98582005500793,"The Welkin","L1 6DS",false,false,"2572","","0151 243 1080","/pubs/all-pubs/england/merseyside/the-welkin-liverpool"
,"2a & 1b The Triad Centre","Bootle","Merseyside",0,"3e817112-0ad4-4c48-a175-97764b80db84",false,false,53.4528656005859,-2.99095511436462,"The Wild Rose","L20 3ET",false,false,"414","","0151 922 0828","/pubs/all-pubs/england/merseyside/the-wild-rose-bootle"
,"387–389 Lord Street","Southport","Merseyside",0,"0dd66b02-8082-40a4-84ed-162ad9fc2abf",false,false,53.6491012573242,-3.00451111793518,"The Willow Grove","PR9 0AG",false,false,"4113","","01704 517830","/pubs/all-pubs/england/merseyside/the-willow-grove-southport"
,"80–81 High Street","Bridgnorth","Shropshire",0,"c21486f1-210a-48f6-99ab-6d397671e318",false,false,52.5367202758789,-2.42022299766541,"Jewel of the Severn","WV16 4DS",false,false,"2092","","01746 711980","/pubs/all-pubs/england/shropshire/jewel-of-the-severn-bridgnorth"
,"Lower Claremont Bank","Shrewsbury","Shropshire",0,"94d108e9-aa6a-4832-bf01-e557eb30a930",false,false,52.7092552185059,-2.75864601135254,"Montgomery’s Tower","SY1 1RT",false,false,"6041","","01743 239080","/pubs/all-pubs/england/shropshire/montgomerys-tower-shrewsbury"
,"Queen Street","Market Drayton","Shropshire",0,"90ffddae-67c0-4278-8da4-118e33ea5713",false,false,52.9061241149902,-2.48583292961121,"The Hippodrome","TF9 1PS",false,false,"5534","","01630 650820","/pubs/all-pubs/england/shropshire/the-hippodrome-market-drayton"
,"Bridge Place","Shrewsbury","Shropshire",0,"2172cc13-8173-4af2-a163-8e6b7033697a",false,true,52.7094802856445,-2.75711894035339,"The Shrewsbury Hotel","SY1 1PU",false,false,,"","01743 236203","/hotels/england/shropshire/the-shrewsbury-hotel"
,"Bridge Place","Shrewsbury","Shropshire",0,"30a2004d-e161-490f-a4cb-7dfb04181bfc",false,false,52.7094802856445,-2.75711894035339,"The Shrewsbury Hotel","SY1 1PU",false,false,"777","","01743 236203","/pubs/all-pubs/england/shropshire/the-shrewsbury-hotel-shrewsbury"
,"17 Willow Street","Oswestry","Shropshire",0,"47728b99-a15c-4f48-9907-56e0b04e4b56",false,false,52.859546661377,-3.05644488334656,"The Wilfred Owen","SY11 1AJ",false,false,"2773","","01691 684910","/pubs/all-pubs/england/shropshire/the-wilfred-owen-oswestry"
